{
  "version": 7,
  "fecha_generacion": "2026-05-18",
  "total_municipios": 8132,
  "municipios": [
    {
      "codigo_ine": "30001",
      "nombre": "Abanilla",
      "provincia": "Murcia",
      "comunidad_autonoma": "Región de Murcia",
      "latitud": 38.20628,
      "longitud": -1.043499,
      "estado_norma": "PERMITIDO",
      "texto_normativa": "Ordenanza Municipal de Convivencia Ciudadana de Abanilla y normativa general de Tráfico: Se prohíbe expresamente la acampada libre en todo el término municipal. El estacionamiento de vehículos habitables está sujeto a las normas generales de circulación, permitiéndose la pernocta en su interior siempre que no se trascienda al exterior mediante el despliegue de enseres (mesas, sillas, toldos), niveladores o vertido de aguas sucias a la vía pública.",
      "resumen_corto": "Permitido estacionar y pernoctar como un turismo en zonas autorizadas de la vía pública. Estrictamente prohibido acampar (sacar toldos, sillas o calzar el vehículo) y verter residuos líquidos según la ordenanza local.",
      "fuente_url": "https://www.aranzadilaley.es/ordenanzas-municipales/documento.php?d=LE0000598804_20170628.HTML",
      "ultima_actualizacion": ""
    },
    {
      "codigo_ine": "30002",
      "nombre": "Abarán",
      "provincia": "Murcia",
      "comunidad_autonoma": "Región de Murcia",
      "latitud": 38.20514,
      "longitud": -1.397181,
      "estado_norma": "PERMITIDO",
      "texto_normativa": "Ordenanza de Convivencia Ciudadana de Abarán y Reglamento General de Circulación: Se autoriza el estacionamiento de vehículos vivienda en las vías públicas aptas, permitiendo la pernocta en su interior sin superar el perímetro del vehículo. Queda expresamente prohibido realizar actos de acampada (colocar calzos, patas, toldos o mesas) y verter aguas grises o negras en zonas no autorizadas del término municipal.",
      "resumen_corto": "Estacionamiento y pernocta permitidos en el casco urbano como un turismo más. Estrictamente prohibido acampar, desplegar elementos al exterior o verter líquidos fuera de las áreas habilitadas.",
      "fuente_url": "https://www.borm.es/services/anuncio/ano/2008/numero/10236/pdf?id=349329",
      "ultima_actualizacion": "13/08/2008"
    },
    {
      "codigo_ine": "30003",
      "nombre": "Águilas",
      "provincia": "Murcia",
      "comunidad_autonoma": "Región de Murcia",
      "latitud": 37.4038,
      "longitud": -1.581161,
      "estado_norma": "RESTRINGIDO",
      "texto_normativa": "Ordenanza Municipal de Autocaravanas de Águilas (Art. 5 y 6): Se permite el estacionamiento y la pernocta por un tiempo máximo de 48 horas en las zonas expresamente habilitadas, quedando prohibida la acampada (desplegar toldos, mesas, sillas o verter líquidos). Se prohíbe la parada y el estacionamiento de estos vehículos en el litoral, paseos marítimos, así como la acampada libre a menos de 5 kilómetros de un camping, playa o núcleo urbano.",
      "resumen_corto": "Permitido un máximo de 48 horas exclusivamente en las áreas oficiales habilitadas para autocaravanas del municipio. Estrictamente prohibido pernoctar en playas, paseos marítimos y espacios protegidos.",
      "fuente_url": "https://transparencia.ayuntamientodeaguilas.org/wp-content/uploads/2018/02/35c5e9.pdf",
      "ultima_actualizacion":"19/01/2018"
    },
    {
      "codigo_ine": "30004",
      "nombre": "Albudeite",
      "provincia": "Murcia",
      "comunidad_autonoma": "Región de Murcia",
      "latitud": 38.02719,
      "longitud": -1.384766,
      "estado_norma": "PERMITIDO",
      "texto_normativa": "Permitido estacionar y pernoctar en el casco urbano bajo las normas de un turismo común. Estrictamente prohibido acampar (sacar sillas, mesas, toldos o poner calzos) y verter líquidos en la vía pública.",
      "resumen_corto": "Sin ordenanza específica para autocaravanas. Se rige enteramente por la normativa general de tráfico (DGT) y la Ordenanza de Convivencia de Albudeite: Se permite el estacionamiento y la pernocta en el interior del vehículo en las zonas aptas del casco urbano, estando prohibida la acampada libre (despliegue de elementos externos o niveladores) y el vertido de aguas residuales.",
      "fuente_url": "https://www.dgt.es/export/sites/web-DGT/.galleries/downloads/muevete-con-seguridad/normas-de-trafico/NOR-normativa-general/report_Instruccion-PROT-2026_04-Autocaravanas.pdf",
      "ultima_actualizacion": "11/03/2026"
    },
    {
      "codigo_ine": "30005",
      "nombre": "Alcantarilla",
      "provincia": "Murcia",
      "comunidad_autonoma": "Región de Murcia",
      "latitud": 37.97068,
      "longitud": -1.218209,
      "estado_norma": "RESTRINGIDO",
      "texto_normativa": "Ordenanza Municipal Reguladora del Tráfico (BORM Núm. 188, 2024), art. 5 y 6: Queda expresamente prohibido sacar toldos, mesas, tendederos o verter líquidos al exterior en el término municipal. Se permite estacionar y pernoctar en las áreas específicamente autorizadas por un máximo de 72 horas.",
      "resumen_corto": "Restringido a estacionamiento sin elementos. Máximo 72h en puntos habilitados.",
      "fuente_url": "https://www.borm.es/services/anuncio/ano/2025/numero/1382/pdf?id=835130",
      "ultima_actualizacion": "2024-08-13"
    },
    {
      "codigo_ine": "30902",
      "nombre": "Los Alcázares",
      "provincia": "Murcia",
      "comunidad_autonoma": "Región de Murcia",
      "latitud": 37.3922,
      "longitud": -0.3807,
      "estado_norma": "RESTRINGIDO",
      "resumen_corto": "Permitido exclusivamente en las áreas oficiales habilitadas y campings autorizados. Estrictamente prohibido estacionar, pernoctar o acampar en playas, paseos marítimos y vías residenciales del litoral.",
      "texto_normativa": "Ordenanza de Playas y Convivencia de Los Alcázares junto a la Instrucción PROT 2026/04 de la DGT: Se restringe el estacionamiento y la pernocta de autocaravanas en todo el frente costero, playas y zonas de dominio público marítimo-terrestre. En el casco urbano interior se permite el estacionamiento técnico regulado por la DGT, quedando prohibida la acampada (calzos, toldos, ventanas salientes) y la emisión de ruidos o vertidos.",
      "fuente_url": "https://www.borm.es/eli/es-mu-01309027/odnz/2023/2/7/(1)/dof/spa/html",
      "ultima_actualizacion": "07/02/2023"
    },
    {
      "codigo_ine": "30006",
      "nombre": "Aledo",
      "provincia": "Murcia",
      "comunidad_autonoma": "Región de Murcia",
      "latitud": 37.79744,
      "longitud": -1.573683,
      "estado_norma": "PERMITIDO",
      "resumen_corto": "Permitido estacionar y pernoctar en el vehículo en vías públicas y zonas habilitadas según la Instrucción PROT 2026/04 de la DGT. Estrictamente prohibido acampar o pernoctar libremente dentro del límite del Parque Natural de Sierra Espuña.",
      "texto_normativa": "Sin ordenanza específica para autocaravanas en el casco urbano. Se aplica la Instrucción PROT 2026/04 de la DGT y la normativa medioambiental de Sierra Espuña: Se permite el estacionamiento técnico y la pernocta en el interior del vehículo en suelo urbano y parkings autorizados sin desplegar enseres exteriores. Queda prohibido cualquier tipo de asentamiento o acampada en los caminos rurales y espacios forestales protegidos.",
      "fuente_url": "https://www.dgt.es/export/sites/web-DGT/.galleries/downloads/muevete-con-seguridad/normas-de-trafico/NOR-normativa-general/report_Instruccion-PROT-2026_04-Autocaravanas.pdf",
      "ultima_actualizacion": "11/03/2026"
    },
    {
      "codigo_ine": "30007",
      "nombre": "Alguazas",
      "provincia": "Murcia",
      "comunidad_autonoma": "Región de Murcia",
      "latitud": 38.04954,
      "longitud": -1.24202,
      "estado_norma": "SIN_DATOS",
      "texto_normativa": "",
      "resumen_corto": "",
      "fuente_url": "",
      "ultima_actualizacion": ""
    },
    {
      "codigo_ine": "30008",
      "nombre": "Alhama de Murcia",
      "provincia": "Murcia",
      "comunidad_autonoma": "Región de Murcia",
      "latitud": 37.85101,
      "longitud": -1.424666,
      "estado_norma": "SIN_DATOS",
      "texto_normativa": "",
      "resumen_corto": "",
      "fuente_url": "",
      "ultima_actualizacion": ""
    },
    {
      "codigo_ine": "30009",
      "nombre": "Archena",
      "provincia": "Murcia",
      "comunidad_autonoma": "Región de Murcia",
      "latitud": 38.11435,
      "longitud": -1.297061,
      "estado_norma": "SIN_DATOS",
      "texto_normativa": "",
      "resumen_corto": "",
      "fuente_url": "",
      "ultima_actualizacion": ""
    },
    {
      "codigo_ine": "30010",
      "nombre": "Beniel",
      "provincia": "Murcia",
      "comunidad_autonoma": "Región de Murcia",
      "latitud": 38.04591,
      "longitud": -1.001894,
      "estado_norma": "SIN_DATOS",
      "texto_normativa": "",
      "resumen_corto": "",
      "fuente_url": "",
      "ultima_actualizacion": ""
    },
    {
      "codigo_ine": "30011",
      "nombre": "Blanca",
      "provincia": "Murcia",
      "comunidad_autonoma": "Región de Murcia",
      "latitud": 38.1792,
      "longitud": -1.376201,
      "estado_norma": "SIN_DATOS",
      "texto_normativa": "",
      "resumen_corto": "",
      "fuente_url": "",
      "ultima_actualizacion": ""
    },
    {
      "codigo_ine": "30012",
      "nombre": "Bullas",
      "provincia": "Murcia",
      "comunidad_autonoma": "Región de Murcia",
      "latitud": 38.04808,
      "longitud": -1.670956,
      "estado_norma": "SIN_DATOS",
      "texto_normativa": "",
      "resumen_corto": "",
      "fuente_url": "",
      "ultima_actualizacion": ""
    },
    {
      "codigo_ine": "30013",
      "nombre": "Calasparra",
      "provincia": "Murcia",
      "comunidad_autonoma": "Región de Murcia",
      "latitud": 38.22923,
      "longitud": -1.701833,
      "estado_norma": "SIN_DATOS",
      "texto_normativa": "",
      "resumen_corto": "",
      "fuente_url": "",
      "ultima_actualizacion": ""
    },
    {
      "codigo_ine": "30014",
      "nombre": "Campos del Río",
      "provincia": "Murcia",
      "comunidad_autonoma": "Región de Murcia",
      "latitud": 38.04043,
      "longitud": -1.351669,
      "estado_norma": "SIN_DATOS",
      "texto_normativa": "",
      "resumen_corto": "",
      "fuente_url": "",
      "ultima_actualizacion": ""
    },
    {
      "codigo_ine": "30015",
      "nombre": "Caravaca de la Cruz",
      "provincia": "Murcia",
      "comunidad_autonoma": "Región de Murcia",
      "latitud": 38.10899,
      "longitud": -1.866033,
      "estado_norma": "SIN_DATOS",
      "texto_normativa": "",
      "resumen_corto": "",
      "fuente_url": "",
      "ultima_actualizacion": ""
    },
    {
      "codigo_ine": "30016",
      "nombre": "Cartagena",
      "provincia": "Murcia",
      "comunidad_autonoma": "Región de Murcia",
      "latitud": 37.60565,
      "longitud": -0.9912944,
      "estado_norma": "RESTRINGIDO",
      "texto_normativa": "Se rige bajo la normativa general de estacionamiento de la DGT, permitiendo el aparcamiento y pernocta sin desplegar enseres. Prohibida la acampada y pernocta en todo el litoral costero, playas y zonas protegidas del término municipal, incluyendo el Parque Regional de Calblanque.",
      "resumen_corto": "Permitido estacionado en casco urbano. Prohibido en playas y Calblanque.",
      "fuente_url": "https://www.cartagena.es/normativa_municipal.asp",
      "ultima_actualizacion": "2025-01-15"
    },
    {
      "codigo_ine": "30017",
      "nombre": "Cehegín",
      "provincia": "Murcia",
      "comunidad_autonoma": "Región de Murcia",
      "latitud": 38.09269,
      "longitud": -1.798522,
      "estado_norma": "SIN_DATOS",
      "texto_normativa": "",
      "resumen_corto": "",
      "fuente_url": "",
      "ultima_actualizacion": ""
    },
    {
      "codigo_ine": "30018",
      "nombre": "Ceutí",
      "provincia": "Murcia",
      "comunidad_autonoma": "Región de Murcia",
      "latitud": 38.07917,
      "longitud": -1.272099,
      "estado_norma": "SIN_DATOS",
      "texto_normativa": "",
      "resumen_corto": "",
      "fuente_url": "",
      "ultima_actualizacion": ""
    },
    {
      "codigo_ine": "30019",
      "nombre": "Cieza",
      "provincia": "Murcia",
      "comunidad_autonoma": "Región de Murcia",
      "latitud": 38.23907,
      "longitud": -1.418767,
      "estado_norma": "SIN_DATOS",
      "texto_normativa": "",
      "resumen_corto": "",
      "fuente_url": "",
      "ultima_actualizacion": ""
    },
    {
      "codigo_ine": "30020",
      "nombre": "Fortuna",
      "provincia": "Murcia",
      "comunidad_autonoma": "Región de Murcia",
      "latitud": 38.18111,
      "longitud": -1.12821,
      "estado_norma": "SIN_DATOS",
      "texto_normativa": "",
      "resumen_corto": "",
      "fuente_url": "",
      "ultima_actualizacion": ""
    },
    {
      "codigo_ine": "30021",
      "nombre": "Fuente Álamo de Murcia",
      "provincia": "Murcia",
      "comunidad_autonoma": "Región de Murcia",
      "latitud": 37.72334,
      "longitud": -1.166995,
      "estado_norma": "SIN_DATOS",
      "texto_normativa": "",
      "resumen_corto": "",
      "fuente_url": "",
      "ultima_actualizacion": ""
    },
    {
      "codigo_ine": "30022",
      "nombre": "Jumilla",
      "provincia": "Murcia",
      "comunidad_autonoma": "Región de Murcia",
      "latitud": 38.47595,
      "longitud": -1.322032,
      "estado_norma": "SIN_DATOS",
      "texto_normativa": "",
      "resumen_corto": "",
      "fuente_url": "",
      "ultima_actualizacion": ""
    },
    {
      "codigo_ine": "30023",
      "nombre": "Librilla",
      "provincia": "Murcia",
      "comunidad_autonoma": "Región de Murcia",
      "latitud": 37.88795,
      "longitud": -1.353289,
      "estado_norma": "SIN_DATOS",
      "texto_normativa": "",
      "resumen_corto": "",
      "fuente_url": "",
      "ultima_actualizacion": ""
    },
    {
      "codigo_ine": "30024",
      "nombre": "Lorca",
      "provincia": "Murcia",
      "comunidad_autonoma": "Región de Murcia",
      "latitud": 37.67131,
      "longitud": -1.698792,
      "estado_norma": "SIN_DATOS",
      "texto_normativa": "",
      "resumen_corto": "",
      "fuente_url": "",
      "ultima_actualizacion": ""
    },
    {
      "codigo_ine": "30025",
      "nombre": "Lorquí",
      "provincia": "Murcia",
      "comunidad_autonoma": "Región de Murcia",
      "latitud": 38.08183,
      "longitud": -1.254943,
      "estado_norma": "SIN_DATOS",
      "texto_normativa": "",
      "resumen_corto": "",
      "fuente_url": "",
      "ultima_actualizacion": ""
    },
    {
      "codigo_ine": "30026",
      "nombre": "Mazarrón",
      "provincia": "Murcia",
      "comunidad_autonoma": "Región de Murcia",
      "latitud": 37.59907,
      "longitud": -1.313669,
      "estado_norma": "SIN_DATOS",
      "texto_normativa": "",
      "resumen_corto": "",
      "fuente_url": "",
      "ultima_actualizacion": ""
    },
    {
      "codigo_ine": "30027",
      "nombre": "Molina de Segura",
      "provincia": "Murcia",
      "comunidad_autonoma": "Región de Murcia",
      "latitud": 38.05092,
      "longitud": -1.210992,
      "estado_norma": "SIN_DATOS",
      "texto_normativa": "",
      "resumen_corto": "",
      "fuente_url": "",
      "ultima_actualizacion": ""
    },
    {
      "codigo_ine": "30028",
      "nombre": "Moratalla",
      "provincia": "Murcia",
      "comunidad_autonoma": "Región de Murcia",
      "latitud": 38.18645,
      "longitud": -1.890504,
      "estado_norma": "SIN_DATOS",
      "texto_normativa": "",
      "resumen_corto": "",
      "fuente_url": "",
      "ultima_actualizacion": ""
    },
    {
      "codigo_ine": "30029",
      "nombre": "Mula",
      "provincia": "Murcia",
      "comunidad_autonoma": "Región de Murcia",
      "latitud": 38.04056,
      "longitud": -1.486329,
      "estado_norma": "SIN_DATOS",
      "texto_normativa": "",
      "resumen_corto": "",
      "fuente_url": "",
      "ultima_actualizacion": ""
    },
    {
      "codigo_ine": "30030",
      "nombre": "Murcia",
      "provincia": "Murcia",
      "comunidad_autonoma": "Región de Murcia",
      "latitud": 37.98344,
      "longitud": -1.12989,
      "estado_norma": "PERMITIDO",
      "texto_normativa": "Decreto n.º 193/2022, de 27 de octubre. Define que no existe acampada si el vehículo está estacionado sin superar su perímetro, sin verter fluidos y sin emitir ruidos molestos. Se permite la pernocta como uso propio del vehículo. Prohíbe la acampada libre en todo el territorio regional.",
      "resumen_corto": "Pernocta permitida si se cumple el régimen de parada/estacionamiento (Decreto 193/2022).",
      "fuente_url": "https://www.borm.es/services/anuncio/ano/2022/numero/5598/pdf",
      "ultima_actualizacion": "2022-11-03"
    },
    {
      "codigo_ine": "30031",
      "nombre": "Ojós",
      "provincia": "Murcia",
      "comunidad_autonoma": "Región de Murcia",
      "latitud": 38.14525,
      "longitud": -1.343079,
      "estado_norma": "SIN_DATOS",
      "texto_normativa": "",
      "resumen_corto": "",
      "fuente_url": "",
      "ultima_actualizacion": ""
    },
    {
      "codigo_ine": "30032",
      "nombre": "Pliego",
      "provincia": "Murcia",
      "comunidad_autonoma": "Región de Murcia",
      "latitud": 37.99001,
      "longitud": -1.506185,
      "estado_norma": "SIN_DATOS",
      "texto_normativa": "",
      "resumen_corto": "",
      "fuente_url": "",
      "ultima_actualizacion": ""
    },
    {
      "codigo_ine": "30033",
      "nombre": "Puerto Lumbreras",
      "provincia": "Murcia",
      "comunidad_autonoma": "Región de Murcia",
      "latitud": 37.56221,
      "longitud": -1.810215,
      "estado_norma": "RESTRINGIDO",
      "texto_normativa": "Ordenanza municipal (BORM nº 188). Art. 5: Prohibido estacionar vehículos-vivienda fuera de zonas habilitadas si se despliegan elementos (toldos, calzos, ventanas proyectables). Art. 7: Estancia máxima de 72h en áreas de servicio.",
      "resumen_corto": "Pernocta permitida máx. 72h en áreas. Prohibido sacar elementos fuera del vehículo.",
      "fuente_url": "https://www.borm.es/services/anuncio/829451/pdf",
      "ultima_actualizacion": "2024-08-13"
    },
    {
      "codigo_ine": "30034",
      "nombre": "Ricote",
      "provincia": "Murcia",
      "comunidad_autonoma": "Región de Murcia",
      "latitud": 38.15238,
      "longitud": -1.367112,
      "estado_norma": "SIN_DATOS",
      "texto_normativa": "",
      "resumen_corto": "",
      "fuente_url": "",
      "ultima_actualizacion": ""
    },
    {
      "codigo_ine": "30035",
      "nombre": "San Javier",
      "provincia": "Murcia",
      "comunidad_autonoma": "Región de Murcia",
      "latitud": 37.80569,
      "longitud": -0.8345491,
      "estado_norma": "SIN_DATOS",
      "texto_normativa": "",
      "resumen_corto": "",
      "fuente_url": "",
      "ultima_actualizacion": ""
    },
    {
      "codigo_ine": "30036",
      "nombre": "San Pedro del Pinatar",
      "provincia": "Murcia",
      "comunidad_autonoma": "Región de Murcia",
      "latitud": 37.83504,
      "longitud": -0.7915859,
      "estado_norma": "SIN_DATOS",
      "texto_normativa": "",
      "resumen_corto": "",
      "fuente_url": "",
      "ultima_actualizacion": ""
    },
    {
      "codigo_ine": "30901",
      "nombre": "Santomera",
      "provincia": "Murcia",
      "comunidad_autonoma": "Región de Murcia",
      "latitud": 38.05997,
      "longitud": -1.047485,
      "estado_norma": "SIN_DATOS",
      "texto_normativa": "",
      "resumen_corto": "",
      "fuente_url": "",
      "ultima_actualizacion": ""
    },
    {
      "codigo_ine": "30037",
      "nombre": "Torre-Pacheco",
      "provincia": "Murcia",
      "comunidad_autonoma": "Región de Murcia",
      "latitud": 37.74428,
      "longitud": -0.9536195,
      "estado_norma": "SIN_DATOS",
      "texto_normativa": "",
      "resumen_corto": "",
      "fuente_url": "",
      "ultima_actualizacion": ""
    },
    {
      "codigo_ine": "30038",
      "nombre": "Las Torres de Cotillas",
      "provincia": "Murcia",
      "comunidad_autonoma": "Región de Murcia",
      "latitud": 38.4208,
      "longitud": -0.9807,
      "estado_norma": "SIN_DATOS",
      "texto_normativa": "",
      "resumen_corto": "",
      "fuente_url": "",
      "ultima_actualizacion": ""
    },
    {
      "codigo_ine": "30039",
      "nombre": "Totana",
      "provincia": "Murcia",
      "comunidad_autonoma": "Región de Murcia",
      "latitud": 37.77124,
      "longitud": -1.501004,
      "estado_norma": "SIN_DATOS",
      "texto_normativa": "",
      "resumen_corto": "",
      "fuente_url": "",
      "ultima_actualizacion": ""
    },
    {
      "codigo_ine": "30040",
      "nombre": "Ulea",
      "provincia": "Murcia",
      "comunidad_autonoma": "Región de Murcia",
      "latitud": 38.13988,
      "longitud": -1.329861,
      "estado_norma": "SIN_DATOS",
      "texto_normativa": "",
      "resumen_corto": "",
      "fuente_url": "",
      "ultima_actualizacion": ""
    },
    {
      "codigo_ine": "30041",
      "nombre": "La Unión",
      "provincia": "Murcia",
      "comunidad_autonoma": "Región de Murcia",
      "latitud": 38.5922,
      "longitud": -1.8807,
      "estado_norma": "SIN_DATOS",
      "texto_normativa": "",
      "resumen_corto": "",
      "fuente_url": "",
      "ultima_actualizacion": ""
    },
    {
      "codigo_ine": "30042",
      "nombre": "Villanueva del Río Segura",
      "provincia": "Murcia",
      "comunidad_autonoma": "Región de Murcia",
      "latitud": 38.13569,
      "longitud": -1.324307,
      "estado_norma": "SIN_DATOS",
      "texto_normativa": "",
      "resumen_corto": "",
      "fuente_url": "",
      "ultima_actualizacion": ""
    },
    {
      "codigo_ine": "30043",
      "nombre": "Yecla",
      "provincia": "Murcia",
      "comunidad_autonoma": "Región de Murcia",
      "latitud": 38.61524,
      "longitud": -1.118017,
      "estado_norma": "SIN_DATOS",
      "texto_normativa": "",
      "resumen_corto": "",
      "fuente_url": "",
      "ultima_actualizacion": ""
    },
    {
      "codigo_ine": "01051",
      "nombre": "Agurain/Salvatierra",
      "provincia": "Álava",
      "comunidad_autonoma": "País Vasco",
      "latitud": 42.2467,
      "longitud": -3.4194,
      "estado_norma": "SIN_DATOS",
      "texto_normativa": "",
      "resumen_corto": "",
      "fuente_url": "",
      "ultima_actualizacion": ""
    },
    {
      "codigo_ine": "01001",
      "nombre": "Alegría-Dulantzi",
      "provincia": "Álava",
      "comunidad_autonoma": "País Vasco",
      "latitud": 42.84149,
      "longitud": -2.513507,
      "estado_norma": "SIN_DATOS",
      "texto_normativa": "",
      "resumen_corto": "",
      "fuente_url": "",
      "ultima_actualizacion": ""
    },
    {
      "codigo_ine": "01002",
      "nombre": "Amurrio",
      "provincia": "Álava",
      "comunidad_autonoma": "País Vasco",
      "latitud": 43.05265,
      "longitud": -3.001022,
      "estado_norma": "SIN_DATOS",
      "texto_normativa": "",
      "resumen_corto": "",
      "fuente_url": "",
      "ultima_actualizacion": ""
    },
    {
      "codigo_ine": "01049",
      "nombre": "Añana",
      "provincia": "Álava",
      "comunidad_autonoma": "País Vasco",
      "latitud": 42.80235,
      "longitud": -2.982607,
      "estado_norma": "SIN_DATOS",
      "texto_normativa": "",
      "resumen_corto": "",
      "fuente_url": "",
      "ultima_actualizacion": ""
    },
    {
      "codigo_ine": "01003",
      "nombre": "Aramaio",
      "provincia": "Álava",
      "comunidad_autonoma": "País Vasco",
      "latitud": 43.054,
      "longitud": -2.566,
      "estado_norma": "SIN_DATOS",
      "texto_normativa": "",
      "resumen_corto": "",
      "fuente_url": "",
      "ultima_actualizacion": ""
    },
    {
      "codigo_ine": "01006",
      "nombre": "Armiñón",
      "provincia": "Álava",
      "comunidad_autonoma": "País Vasco",
      "latitud": 42.72305,
      "longitud": -2.872574,
      "estado_norma": "SIN_DATOS",
      "texto_normativa": "",
      "resumen_corto": "",
      "fuente_url": "",
      "ultima_actualizacion": ""
    },
    {
      "codigo_ine": "01037",
      "nombre": "Arraia-Maeztu",
      "provincia": "Álava",
      "comunidad_autonoma": "País Vasco",
      "latitud": 42.73981,
      "longitud": -2.44598,
      "estado_norma": "SIN_DATOS",
      "texto_normativa": "",
      "resumen_corto": "",
      "fuente_url": "",
      "ultima_actualizacion": ""
    },
    {
      "codigo_ine": "01008",
      "nombre": "Arratzua-Ubarrundia",
      "provincia": "Álava",
      "comunidad_autonoma": "País Vasco",
      "latitud": 42.91669,
      "longitud": -2.491817,
      "estado_norma": "SIN_DATOS",
      "texto_normativa": "",
      "resumen_corto": "",
      "fuente_url": "",
      "ultima_actualizacion": ""
    },
    {
      "codigo_ine": "01004",
      "nombre": "Artziniega",
      "provincia": "Álava",
      "comunidad_autonoma": "País Vasco",
      "latitud": 43.1222,
      "longitud": -3.128209,
      "estado_norma": "SIN_DATOS",
      "texto_normativa": "",
      "resumen_corto": "",
      "fuente_url": "",
      "ultima_actualizacion": ""
    },
    {
      "codigo_ine": "01009",
      "nombre": "Asparrena",
      "provincia": "Álava",
      "comunidad_autonoma": "País Vasco",
      "latitud": 42.89567,
      "longitud": -2.321,
      "estado_norma": "SIN_DATOS",
      "texto_normativa": "",
      "resumen_corto": "",
      "fuente_url": "",
      "ultima_actualizacion": ""
    },
    {
      "codigo_ine": "01010",
      "nombre": "Ayala/Aiara",
      "provincia": "Álava",
      "comunidad_autonoma": "País Vasco",
      "latitud": 43.08333,
      "longitud": -3.063056,
      "estado_norma": "SIN_DATOS",
      "texto_normativa": "",
      "resumen_corto": "",
      "fuente_url": "",
      "ultima_actualizacion": ""
    },
    {
      "codigo_ine": "01011",
      "nombre": "Baños de Ebro/Mañueta",
      "provincia": "Álava",
      "comunidad_autonoma": "País Vasco",
      "latitud": 42.53029,
      "longitud": -2.679144,
      "estado_norma": "SIN_DATOS",
      "texto_normativa": "",
      "resumen_corto": "",
      "fuente_url": "",
      "ultima_actualizacion": ""
    },
    {
      "codigo_ine": "01013",
      "nombre": "Barrundia",
      "provincia": "Álava",
      "comunidad_autonoma": "País Vasco",
      "latitud": 42.91669,
      "longitud": -2.491817,
      "estado_norma": "SIN_DATOS",
      "texto_normativa": "",
      "resumen_corto": "",
      "fuente_url": "",
      "ultima_actualizacion": ""
    },
    {
      "codigo_ine": "01014",
      "nombre": "Berantevilla",
      "provincia": "Álava",
      "comunidad_autonoma": "País Vasco",
      "latitud": 42.68245,
      "longitud": -2.860401,
      "estado_norma": "SIN_DATOS",
      "texto_normativa": "",
      "resumen_corto": "",
      "fuente_url": "",
      "ultima_actualizacion": ""
    },
    {
      "codigo_ine": "01016",
      "nombre": "Bernedo",
      "provincia": "Álava",
      "comunidad_autonoma": "País Vasco",
      "latitud": 42.62669,
      "longitud": -2.497532,
      "estado_norma": "SIN_DATOS",
      "texto_normativa": "",
      "resumen_corto": "",
      "fuente_url": "",
      "ultima_actualizacion": ""
    },
    {
      "codigo_ine": "01017",
      "nombre": "Campezo/Kanpezu",
      "provincia": "Álava",
      "comunidad_autonoma": "País Vasco",
      "latitud": 42.69194,
      "longitud": -2.37,
      "estado_norma": "SIN_DATOS",
      "texto_normativa": "",
      "resumen_corto": "",
      "fuente_url": "",
      "ultima_actualizacion": ""
    },
    {
      "codigo_ine": "01021",
      "nombre": "Elburgo/Burgelu",
      "provincia": "Álava",
      "comunidad_autonoma": "País Vasco",
      "latitud": 42.84956,
      "longitud": -2.544762,
      "estado_norma": "SIN_DATOS",
      "texto_normativa": "",
      "resumen_corto": "",
      "fuente_url": "",
      "ultima_actualizacion": ""
    },
    {
      "codigo_ine": "01022",
      "nombre": "Elciego",
      "provincia": "Álava",
      "comunidad_autonoma": "País Vasco",
      "latitud": 42.51507,
      "longitud": -2.618277,
      "estado_norma": "SIN_DATOS",
      "texto_normativa": "",
      "resumen_corto": "",
      "fuente_url": "",
      "ultima_actualizacion": ""
    },
    {
      "codigo_ine": "01023",
      "nombre": "Elvillar/Bilar",
      "provincia": "Álava",
      "comunidad_autonoma": "País Vasco",
      "latitud": 42.5705,
      "longitud": -2.544915,
      "estado_norma": "SIN_DATOS",
      "texto_normativa": "",
      "resumen_corto": "",
      "fuente_url": "",
      "ultima_actualizacion": ""
    },
    {
      "codigo_ine": "01046",
      "nombre": "Erriberagoitia/Ribera Alta",
      "provincia": "Álava",
      "comunidad_autonoma": "País Vasco",
      "latitud": 42.71577,
      "longitud": -2.968477,
      "estado_norma": "SIN_DATOS",
      "texto_normativa": "",
      "resumen_corto": "",
      "fuente_url": "",
      "ultima_actualizacion": ""
    },
    {
      "codigo_ine": "01056",
      "nombre": "Harana/Valle de Arana",
      "provincia": "Álava",
      "comunidad_autonoma": "País Vasco",
      "latitud": 42.75673,
      "longitud": -2.321858,
      "estado_norma": "SIN_DATOS",
      "texto_normativa": "",
      "resumen_corto": "",
      "fuente_url": "",
      "ultima_actualizacion": ""
    },
    {
      "codigo_ine": "01901",
      "nombre": "Iruña Oka/Iruña de Oca",
      "provincia": "Álava",
      "comunidad_autonoma": "País Vasco",
      "latitud": 42.81917,
      "longitud": -2.807778,
      "estado_norma": "SIN_DATOS",
      "texto_normativa": "",
      "resumen_corto": "",
      "fuente_url": "",
      "ultima_actualizacion": ""
    },
    {
      "codigo_ine": "01027",
      "nombre": "Iruraiz-Gauna",
      "provincia": "Álava",
      "comunidad_autonoma": "País Vasco",
      "latitud": 42.82207,
      "longitud": -2.495043,
      "estado_norma": "SIN_DATOS",
      "texto_normativa": "",
      "resumen_corto": "",
      "fuente_url": "",
      "ultima_actualizacion": ""
    },
    {
      "codigo_ine": "01019",
      "nombre": "Kripan",
      "provincia": "Álava",
      "comunidad_autonoma": "País Vasco",
      "latitud": 42.59167,
      "longitud": -2.516079,
      "estado_norma": "SIN_DATOS",
      "texto_normativa": "",
      "resumen_corto": "",
      "fuente_url": "",
      "ultima_actualizacion": ""
    },
    {
      "codigo_ine": "01020",
      "nombre": "Kuartango",
      "provincia": "Álava",
      "comunidad_autonoma": "País Vasco",
      "latitud": 42.87139,
      "longitud": -2.885556,
      "estado_norma": "SIN_DATOS",
      "texto_normativa": "",
      "resumen_corto": "",
      "fuente_url": "",
      "ultima_actualizacion": ""
    },
    {
      "codigo_ine": "01028",
      "nombre": "Labastida/Bastida",
      "provincia": "Álava",
      "comunidad_autonoma": "País Vasco",
      "latitud": 42.59042,
      "longitud": -2.793166,
      "estado_norma": "SIN_DATOS",
      "texto_normativa": "",
      "resumen_corto": "",
      "fuente_url": "",
      "ultima_actualizacion": ""
    },
    {
      "codigo_ine": "01030",
      "nombre": "Lagrán",
      "provincia": "Álava",
      "comunidad_autonoma": "País Vasco",
      "latitud": 42.6264,
      "longitud": -2.58382,
      "estado_norma": "SIN_DATOS",
      "texto_normativa": "",
      "resumen_corto": "",
      "fuente_url": "",
      "ultima_actualizacion": ""
    },
    {
      "codigo_ine": "01031",
      "nombre": "Laguardia",
      "provincia": "Álava",
      "comunidad_autonoma": "País Vasco",
      "latitud": 42.55428,
      "longitud": -2.584237,
      "estado_norma": "SIN_DATOS",
      "texto_normativa": "",
      "resumen_corto": "",
      "fuente_url": "",
      "ultima_actualizacion": ""
    },
    {
      "codigo_ine": "01032",
      "nombre": "Lanciego/Lantziego",
      "provincia": "Álava",
      "comunidad_autonoma": "País Vasco",
      "latitud": 42.56262,
      "longitud": -2.513204,
      "estado_norma": "SIN_DATOS",
      "texto_normativa": "",
      "resumen_corto": "",
      "fuente_url": "",
      "ultima_actualizacion": ""
    },
    {
      "codigo_ine": "01902",
      "nombre": "Lantarón",
      "provincia": "Álava",
      "comunidad_autonoma": "País Vasco",
      "latitud": 42.75667,
      "longitud": -2.987556,
      "estado_norma": "SIN_DATOS",
      "texto_normativa": "",
      "resumen_corto": "",
      "fuente_url": "",
      "ultima_actualizacion": ""
    },
    {
      "codigo_ine": "01033",
      "nombre": "Lapuebla de Labarca",
      "provincia": "Álava",
      "comunidad_autonoma": "País Vasco",
      "latitud": 42.49467,
      "longitud": -2.575167,
      "estado_norma": "SIN_DATOS",
      "texto_normativa": "",
      "resumen_corto": "",
      "fuente_url": "",
      "ultima_actualizacion": ""
    },
    {
      "codigo_ine": "01036",
      "nombre": "Laudio/Llodio",
      "provincia": "Álava",
      "comunidad_autonoma": "País Vasco",
      "latitud": 43.14333,
      "longitud": -2.962985,
      "estado_norma": "SIN_DATOS",
      "texto_normativa": "",
      "resumen_corto": "",
      "fuente_url": "",
      "ultima_actualizacion": ""
    },
    {
      "codigo_ine": "01058",
      "nombre": "Legutio",
      "provincia": "Álava",
      "comunidad_autonoma": "País Vasco",
      "latitud": 42.9324,
      "longitud": -2.4194,
      "estado_norma": "SIN_DATOS",
      "texto_normativa": "",
      "resumen_corto": "",
      "fuente_url": "",
      "ultima_actualizacion": ""
    },
    {
      "codigo_ine": "01034",
      "nombre": "Leza",
      "provincia": "Álava",
      "comunidad_autonoma": "País Vasco",
      "latitud": 42.56607,
      "longitud": -2.633635,
      "estado_norma": "SIN_DATOS",
      "texto_normativa": "",
      "resumen_corto": "",
      "fuente_url": "",
      "ultima_actualizacion": ""
    },
    {
      "codigo_ine": "01039",
      "nombre": "Moreda de Álava/Moreda Araba",
      "provincia": "Álava",
      "comunidad_autonoma": "País Vasco",
      "latitud": 42.52802,
      "longitud": -2.40767,
      "estado_norma": "SIN_DATOS",
      "texto_normativa": "",
      "resumen_corto": "",
      "fuente_url": "",
      "ultima_actualizacion": ""
    },
    {
      "codigo_ine": "01041",
      "nombre": "Navaridas",
      "provincia": "Álava",
      "comunidad_autonoma": "País Vasco",
      "latitud": 42.54517,
      "longitud": -2.624532,
      "estado_norma": "SIN_DATOS",
      "texto_normativa": "",
      "resumen_corto": "",
      "fuente_url": "",
      "ultima_actualizacion": ""
    },
    {
      "codigo_ine": "01042",
      "nombre": "Okondo",
      "provincia": "Álava",
      "comunidad_autonoma": "País Vasco",
      "latitud": 43.16222,
      "longitud": -3.018889,
      "estado_norma": "SIN_DATOS",
      "texto_normativa": "",
      "resumen_corto": "",
      "fuente_url": "",
      "ultima_actualizacion": ""
    },
    {
      "codigo_ine": "01043",
      "nombre": "Oyón-Oion",
      "provincia": "Álava",
      "comunidad_autonoma": "País Vasco",
      "latitud": 42.50614,
      "longitud": -2.436965,
      "estado_norma": "SIN_DATOS",
      "texto_normativa": "",
      "resumen_corto": "",
      "fuente_url": "",
      "ultima_actualizacion": ""
    },
    {
      "codigo_ine": "01044",
      "nombre": "Peñacerrada-Urizaharra",
      "provincia": "Álava",
      "comunidad_autonoma": "País Vasco",
      "latitud": 42.6441,
      "longitud": -2.713375,
      "estado_norma": "SIN_DATOS",
      "texto_normativa": "",
      "resumen_corto": "",
      "fuente_url": "",
      "ultima_actualizacion": ""
    },
    {
      "codigo_ine": "01047",
      "nombre": "Ribera Baja/Erriberabeitia",
      "provincia": "Álava",
      "comunidad_autonoma": "País Vasco",
      "latitud": 42.71267,
      "longitud": -2.918541,
      "estado_norma": "SIN_DATOS",
      "texto_normativa": "",
      "resumen_corto": "",
      "fuente_url": "",
      "ultima_actualizacion": ""
    },
    {
      "codigo_ine": "01052",
      "nombre": "Samaniego",
      "provincia": "Álava",
      "comunidad_autonoma": "País Vasco",
      "latitud": 42.56983,
      "longitud": -2.680185,
      "estado_norma": "SIN_DATOS",
      "texto_normativa": "",
      "resumen_corto": "",
      "fuente_url": "",
      "ultima_actualizacion": ""
    },
    {
      "codigo_ine": "01053",
      "nombre": "San Millán/Donemiliaga",
      "provincia": "Álava",
      "comunidad_autonoma": "País Vasco",
      "latitud": 42.87472,
      "longitud": -2.376111,
      "estado_norma": "SIN_DATOS",
      "texto_normativa": "",
      "resumen_corto": "",
      "fuente_url": "",
      "ultima_actualizacion": ""
    },
    {
      "codigo_ine": "01054",
      "nombre": "Urkabustaiz",
      "provincia": "Álava",
      "comunidad_autonoma": "País Vasco",
      "latitud": 42.97194,
      "longitud": -2.922222,
      "estado_norma": "SIN_DATOS",
      "texto_normativa": "",
      "resumen_corto": "",
      "fuente_url": "",
      "ultima_actualizacion": ""
    },
    {
      "codigo_ine": "01055",
      "nombre": "Valdegovía/Gaubea",
      "provincia": "Álava",
      "comunidad_autonoma": "País Vasco",
      "latitud": 42.85,
      "longitud": -3.1,
      "estado_norma": "SIN_DATOS",
      "texto_normativa": "",
      "resumen_corto": "",
      "fuente_url": "",
      "ultima_actualizacion": ""
    },
    {
      "codigo_ine": "01057",
      "nombre": "Villabuena de Álava/Eskuernaga",
      "provincia": "Álava",
      "comunidad_autonoma": "País Vasco",
      "latitud": 42.54872,
      "longitud": -2.665456,
      "estado_norma": "SIN_DATOS",
      "texto_normativa": "",
      "resumen_corto": "",
      "fuente_url": "",
      "ultima_actualizacion": ""
    },
    {
      "codigo_ine": "01059",
      "nombre": "Vitoria-Gasteiz",
      "provincia": "Álava",
      "comunidad_autonoma": "País Vasco",
      "latitud": 42.84641,
      "longitud": -2.667893,
      "estado_norma": "SIN_DATOS",
      "texto_normativa": "",
      "resumen_corto": "",
      "fuente_url": "",
      "ultima_actualizacion": ""
    },
    {
      "codigo_ine": "01060",
      "nombre": "Yécora/Iekora",
      "provincia": "Álava",
      "comunidad_autonoma": "País Vasco",
      "latitud": 42.5693,
      "longitud": -2.470064,
      "estado_norma": "SIN_DATOS",
      "texto_normativa": "",
      "resumen_corto": "",
      "fuente_url": "",
      "ultima_actualizacion": ""
    },
    {
      "codigo_ine": "01061",
      "nombre": "Zalduondo",
      "provincia": "Álava",
      "comunidad_autonoma": "País Vasco",
      "latitud": 42.88563,
      "longitud": -2.347254,
      "estado_norma": "SIN_DATOS",
      "texto_normativa": "",
      "resumen_corto": "",
      "fuente_url": "",
      "ultima_actualizacion": ""
    },
    {
      "codigo_ine": "01062",
      "nombre": "Zambrana",
      "provincia": "Álava",
      "comunidad_autonoma": "País Vasco",
      "latitud": 42.65998,
      "longitud": -2.879353,
      "estado_norma": "SIN_DATOS",
      "texto_normativa": "",
      "resumen_corto": "",
      "fuente_url": "",
      "ultima_actualizacion": ""
    },
    {
      "codigo_ine": "01018",
      "nombre": "Zigoitia",
      "provincia": "Álava",
      "comunidad_autonoma": "País Vasco",
      "latitud": 42.9682,
      "longitud": -2.7183,
      "estado_norma": "SIN_DATOS",
      "texto_normativa": "",
      "resumen_corto": "",
      "fuente_url": "",
      "ultima_actualizacion": ""
    },
    {
      "codigo_ine": "01063",
      "nombre": "Zuia",
      "provincia": "Álava",
      "comunidad_autonoma": "País Vasco",
      "latitud": 42.98167,
      "longitud": -2.844,
      "estado_norma": "SIN_DATOS",
      "texto_normativa": "",
      "resumen_corto": "",
      "fuente_url": "",
      "ultima_actualizacion": ""
    },
    {
      "codigo_ine": "02001",
      "nombre": "Abengibre",
      "provincia": "Albacete",
      "comunidad_autonoma": "Castilla-La Mancha",
      "latitud": 39.20999,
      "longitud": -1.544182,
      "estado_norma": "SIN_DATOS",
      "texto_normativa": "",
      "resumen_corto": "",
      "fuente_url": "",
      "ultima_actualizacion": ""
    },
    {
      "codigo_ine": "02002",
      "nombre": "Alatoz",
      "provincia": "Albacete",
      "comunidad_autonoma": "Castilla-La Mancha",
      "latitud": 39.09464,
      "longitud": -1.361155,
      "estado_norma": "SIN_DATOS",
      "texto_normativa": "",
      "resumen_corto": "",
      "fuente_url": "",
      "ultima_actualizacion": ""
    },
    {
      "codigo_ine": "02003",
      "nombre": "Albacete",
      "provincia": "Albacete",
      "comunidad_autonoma": "Castilla-La Mancha",
      "latitud": 38.99765,
      "longitud": -1.86007,
      "estado_norma": "SIN_DATOS",
      "texto_normativa": "",
      "resumen_corto": "",
      "fuente_url": "",
      "ultima_actualizacion": ""
    },
    {
      "codigo_ine": "02004",
      "nombre": "Albatana",
      "provincia": "Albacete",
      "comunidad_autonoma": "Castilla-La Mancha",
      "latitud": 38.56977,
      "longitud": -1.524207,
      "estado_norma": "SIN_DATOS",
      "texto_normativa": "",
      "resumen_corto": "",
      "fuente_url": "",
      "ultima_actualizacion": ""
    },
    {
      "codigo_ine": "02005",
      "nombre": "Alborea",
      "provincia": "Albacete",
      "comunidad_autonoma": "Castilla-La Mancha",
      "latitud": 39.27951,
      "longitud": -1.39587,
      "estado_norma": "SIN_DATOS",
      "texto_normativa": "",
      "resumen_corto": "",
      "fuente_url": "",
      "ultima_actualizacion": ""
    },
    {
      "codigo_ine": "02006",
      "nombre": "Alcadozo",
      "provincia": "Albacete",
      "comunidad_autonoma": "Castilla-La Mancha",
      "latitud": 38.64877,
      "longitud": -1.981464,
      "estado_norma": "SIN_DATOS",
      "texto_normativa": "",
      "resumen_corto": "",
      "fuente_url": "",
      "ultima_actualizacion": ""
    },
    {
      "codigo_ine": "02007",
      "nombre": "Alcalá del Júcar",
      "provincia": "Albacete",
      "comunidad_autonoma": "Castilla-La Mancha",
      "latitud": 39.19346,
      "longitud": -1.429671,
      "estado_norma": "SIN_DATOS",
      "texto_normativa": "",
      "resumen_corto": "",
      "fuente_url": "",
      "ultima_actualizacion": ""
    },
    {
      "codigo_ine": "02008",
      "nombre": "Alcaraz",
      "provincia": "Albacete",
      "comunidad_autonoma": "Castilla-La Mancha",
      "latitud": 38.66966,
      "longitud": -2.492647,
      "estado_norma": "SIN_DATOS",
      "texto_normativa": "",
      "resumen_corto": "",
      "fuente_url": "",
      "ultima_actualizacion": ""
    },
    {
      "codigo_ine": "02009",
      "nombre": "Almansa",
      "provincia": "Albacete",
      "comunidad_autonoma": "Castilla-La Mancha",
      "latitud": 38.86941,
      "longitud": -1.097517,
      "estado_norma": "SIN_DATOS",
      "texto_normativa": "",
      "resumen_corto": "",
      "fuente_url": "",
      "ultima_actualizacion": ""
    },
    {
      "codigo_ine": "02010",
      "nombre": "Alpera",
      "provincia": "Albacete",
      "comunidad_autonoma": "Castilla-La Mancha",
      "latitud": 38.95939,
      "longitud": -1.231247,
      "estado_norma": "SIN_DATOS",
      "texto_normativa": "",
      "resumen_corto": "",
      "fuente_url": "",
      "ultima_actualizacion": ""
    },
    {
      "codigo_ine": "02011",
      "nombre": "Ayna",
      "provincia": "Albacete",
      "comunidad_autonoma": "Castilla-La Mancha",
      "latitud": 38.55318,
      "longitud": -2.070846,
      "estado_norma": "SIN_DATOS",
      "texto_normativa": "",
      "resumen_corto": "",
      "fuente_url": "",
      "ultima_actualizacion": ""
    },
    {
      "codigo_ine": "02012",
      "nombre": "Balazote",
      "provincia": "Albacete",
      "comunidad_autonoma": "Castilla-La Mancha",
      "latitud": 38.88408,
      "longitud": -2.150826,
      "estado_norma": "SIN_DATOS",
      "texto_normativa": "",
      "resumen_corto": "",
      "fuente_url": "",
      "ultima_actualizacion": ""
    },
    {
      "codigo_ine": "02014",
      "nombre": "El Ballestero",
      "provincia": "Albacete",
      "comunidad_autonoma": "Castilla-La Mancha",
      "latitud": 38.5275,
      "longitud": -2.0439,
      "estado_norma": "SIN_DATOS",
      "texto_normativa": "",
      "resumen_corto": "",
      "fuente_url": "",
      "ultima_actualizacion": ""
    },
    {
      "codigo_ine": "02013",
      "nombre": "Balsa de Ves",
      "provincia": "Albacete",
      "comunidad_autonoma": "Castilla-La Mancha",
      "latitud": 39.26442,
      "longitud": -1.195344,
      "estado_norma": "SIN_DATOS",
      "texto_normativa": "",
      "resumen_corto": "",
      "fuente_url": "",
      "ultima_actualizacion": ""
    },
    {
      "codigo_ine": "02015",
      "nombre": "Barrax",
      "provincia": "Albacete",
      "comunidad_autonoma": "Castilla-La Mancha",
      "latitud": 39.04573,
      "longitud": -2.200169,
      "estado_norma": "SIN_DATOS",
      "texto_normativa": "",
      "resumen_corto": "",
      "fuente_url": "",
      "ultima_actualizacion": ""
    },
    {
      "codigo_ine": "02016",
      "nombre": "Bienservida",
      "provincia": "Albacete",
      "comunidad_autonoma": "Castilla-La Mancha",
      "latitud": 38.51517,
      "longitud": -2.611526,
      "estado_norma": "SIN_DATOS",
      "texto_normativa": "",
      "resumen_corto": "",
      "fuente_url": "",
      "ultima_actualizacion": ""
    },
    {
      "codigo_ine": "02017",
      "nombre": "Bogarra",
      "provincia": "Albacete",
      "comunidad_autonoma": "Castilla-La Mancha",
      "latitud": 38.58138,
      "longitud": -2.214221,
      "estado_norma": "SIN_DATOS",
      "texto_normativa": "",
      "resumen_corto": "",
      "fuente_url": "",
      "ultima_actualizacion": ""
    },
    {
      "codigo_ine": "02018",
      "nombre": "Bonete",
      "provincia": "Albacete",
      "comunidad_autonoma": "Castilla-La Mancha",
      "latitud": 38.8693,
      "longitud": -1.348517,
      "estado_norma": "SIN_DATOS",
      "texto_normativa": "",
      "resumen_corto": "",
      "fuente_url": "",
      "ultima_actualizacion": ""
    },
    {
      "codigo_ine": "02019",
      "nombre": "El Bonillo",
      "provincia": "Albacete",
      "comunidad_autonoma": "Castilla-La Mancha",
      "latitud": 38.6609,
      "longitud": -2.6064,
      "estado_norma": "SIN_DATOS",
      "texto_normativa": "",
      "resumen_corto": "",
      "fuente_url": "",
      "ultima_actualizacion": ""
    },
    {
      "codigo_ine": "02020",
      "nombre": "Carcelén",
      "provincia": "Albacete",
      "comunidad_autonoma": "Castilla-La Mancha",
      "latitud": 39.10189,
      "longitud": -1.308891,
      "estado_norma": "SIN_DATOS",
      "texto_normativa": "",
      "resumen_corto": "",
      "fuente_url": "",
      "ultima_actualizacion": ""
    },
    {
      "codigo_ine": "02021",
      "nombre": "Casas de Juan Núñez",
      "provincia": "Albacete",
      "comunidad_autonoma": "Castilla-La Mancha",
      "latitud": 39.10187,
      "longitud": -1.557571,
      "estado_norma": "SIN_DATOS",
      "texto_normativa": "",
      "resumen_corto": "",
      "fuente_url": "",
      "ultima_actualizacion": ""
    },
    {
      "codigo_ine": "02022",
      "nombre": "Casas de Lázaro",
      "provincia": "Albacete",
      "comunidad_autonoma": "Castilla-La Mancha",
      "latitud": 38.77105,
      "longitud": -2.241862,
      "estado_norma": "SIN_DATOS",
      "texto_normativa": "",
      "resumen_corto": "",
      "fuente_url": "",
      "ultima_actualizacion": ""
    },
    {
      "codigo_ine": "02023",
      "nombre": "Casas de Ves",
      "provincia": "Albacete",
      "comunidad_autonoma": "Castilla-La Mancha",
      "latitud": 39.2584,
      "longitud": -1.335103,
      "estado_norma": "SIN_DATOS",
      "texto_normativa": "",
      "resumen_corto": "",
      "fuente_url": "",
      "ultima_actualizacion": ""
    },
    {
      "codigo_ine": "02024",
      "nombre": "Casas-Ibáñez",
      "provincia": "Albacete",
      "comunidad_autonoma": "Castilla-La Mancha",
      "latitud": 39.28518,
      "longitud": -1.47113,
      "estado_norma": "SIN_DATOS",
      "texto_normativa": "",
      "resumen_corto": "",
      "fuente_url": "",
      "ultima_actualizacion": ""
    },
    {
      "codigo_ine": "02025",
      "nombre": "Caudete",
      "provincia": "Albacete",
      "comunidad_autonoma": "Castilla-La Mancha",
      "latitud": 38.70274,
      "longitud": -0.9915481,
      "estado_norma": "SIN_DATOS",
      "texto_normativa": "",
      "resumen_corto": "",
      "fuente_url": "",
      "ultima_actualizacion": ""
    },
    {
      "codigo_ine": "02026",
      "nombre": "Cenizate",
      "provincia": "Albacete",
      "comunidad_autonoma": "Castilla-La Mancha",
      "latitud": 39.3043,
      "longitud": -1.661456,
      "estado_norma": "SIN_DATOS",
      "texto_normativa": "",
      "resumen_corto": "",
      "fuente_url": "",
      "ultima_actualizacion": ""
    },
    {
      "codigo_ine": "02029",
      "nombre": "Chinchilla de Monte-Aragón",
      "provincia": "Albacete",
      "comunidad_autonoma": "Castilla-La Mancha",
      "latitud": 38.91862,
      "longitud": -1.722758,
      "estado_norma": "SIN_DATOS",
      "texto_normativa": "",
      "resumen_corto": "",
      "fuente_url": "",
      "ultima_actualizacion": ""
    },
    {
      "codigo_ine": "02027",
      "nombre": "Corral-Rubio",
      "provincia": "Albacete",
      "comunidad_autonoma": "Castilla-La Mancha",
      "latitud": 38.83509,
      "longitud": -1.460988,
      "estado_norma": "SIN_DATOS",
      "texto_normativa": "",
      "resumen_corto": "",
      "fuente_url": "",
      "ultima_actualizacion": ""
    },
    {
      "codigo_ine": "02028",
      "nombre": "Cotillas",
      "provincia": "Albacete",
      "comunidad_autonoma": "Castilla-La Mancha",
      "latitud": 38.4311,
      "longitud": -2.506876,
      "estado_norma": "SIN_DATOS",
      "texto_normativa": "",
      "resumen_corto": "",
      "fuente_url": "",
      "ultima_actualizacion": ""
    },
    {
      "codigo_ine": "02030",
      "nombre": "Elche de la Sierra",
      "provincia": "Albacete",
      "comunidad_autonoma": "Castilla-La Mancha",
      "latitud": 38.44759,
      "longitud": -2.048343,
      "estado_norma": "SIN_DATOS",
      "texto_normativa": "",
      "resumen_corto": "",
      "fuente_url": "",
      "ultima_actualizacion": ""
    },
    {
      "codigo_ine": "02031",
      "nombre": "Férez",
      "provincia": "Albacete",
      "comunidad_autonoma": "Castilla-La Mancha",
      "latitud": 38.35604,
      "longitud": -2.010168,
      "estado_norma": "SIN_DATOS",
      "texto_normativa": "",
      "resumen_corto": "",
      "fuente_url": "",
      "ultima_actualizacion": ""
    },
    {
      "codigo_ine": "02032",
      "nombre": "Fuensanta",
      "provincia": "Albacete",
      "comunidad_autonoma": "Castilla-La Mancha",
      "latitud": 39.24641,
      "longitud": -2.065142,
      "estado_norma": "SIN_DATOS",
      "texto_normativa": "",
      "resumen_corto": "",
      "fuente_url": "",
      "ultima_actualizacion": ""
    },
    {
      "codigo_ine": "02033",
      "nombre": "Fuente-Álamo",
      "provincia": "Albacete",
      "comunidad_autonoma": "Castilla-La Mancha",
      "latitud": 38.69322,
      "longitud": -1.431773,
      "estado_norma": "SIN_DATOS",
      "texto_normativa": "",
      "resumen_corto": "",
      "fuente_url": "",
      "ultima_actualizacion": ""
    },
    {
      "codigo_ine": "02034",
      "nombre": "Fuentealbilla",
      "provincia": "Albacete",
      "comunidad_autonoma": "Castilla-La Mancha",
      "latitud": 39.26686,
      "longitud": -1.549186,
      "estado_norma": "SIN_DATOS",
      "texto_normativa": "",
      "resumen_corto": "",
      "fuente_url": "",
      "ultima_actualizacion": ""
    },
    {
      "codigo_ine": "02035",
      "nombre": "La Gineta",
      "provincia": "Albacete",
      "comunidad_autonoma": "Castilla-La Mancha",
      "latitud": 38.7942,
      "longitud": -1.2939,
      "estado_norma": "SIN_DATOS",
      "texto_normativa": "",
      "resumen_corto": "",
      "fuente_url": "",
      "ultima_actualizacion": ""
    },
    {
      "codigo_ine": "02036",
      "nombre": "Golosalvo",
      "provincia": "Albacete",
      "comunidad_autonoma": "Castilla-La Mancha",
      "latitud": 39.23994,
      "longitud": -1.636626,
      "estado_norma": "SIN_DATOS",
      "texto_normativa": "",
      "resumen_corto": "",
      "fuente_url": "",
      "ultima_actualizacion": ""
    },
    {
      "codigo_ine": "02037",
      "nombre": "Hellín",
      "provincia": "Albacete",
      "comunidad_autonoma": "Castilla-La Mancha",
      "latitud": 38.51216,
      "longitud": -1.70331,
      "estado_norma": "SIN_DATOS",
      "texto_normativa": "",
      "resumen_corto": "",
      "fuente_url": "",
      "ultima_actualizacion": ""
    },
    {
      "codigo_ine": "02038",
      "nombre": "La Herrera",
      "provincia": "Albacete",
      "comunidad_autonoma": "Castilla-La Mancha",
      "latitud": 38.9275,
      "longitud": -2.4189,
      "estado_norma": "SIN_DATOS",
      "texto_normativa": "",
      "resumen_corto": "",
      "fuente_url": "",
      "ultima_actualizacion": ""
    },
    {
      "codigo_ine": "02039",
      "nombre": "Higueruela",
      "provincia": "Albacete",
      "comunidad_autonoma": "Castilla-La Mancha",
      "latitud": 38.96424,
      "longitud": -1.445101,
      "estado_norma": "SIN_DATOS",
      "texto_normativa": "",
      "resumen_corto": "",
      "fuente_url": "",
      "ultima_actualizacion": ""
    },
    {
      "codigo_ine": "02040",
      "nombre": "Hoya-Gonzalo",
      "provincia": "Albacete",
      "comunidad_autonoma": "Castilla-La Mancha",
      "latitud": 38.96017,
      "longitud": -1.554348,
      "estado_norma": "SIN_DATOS",
      "texto_normativa": "",
      "resumen_corto": "",
      "fuente_url": "",
      "ultima_actualizacion": ""
    },
    {
      "codigo_ine": "02041",
      "nombre": "Jorquera",
      "provincia": "Albacete",
      "comunidad_autonoma": "Castilla-La Mancha",
      "latitud": 39.17475,
      "longitud": -1.521044,
      "estado_norma": "SIN_DATOS",
      "texto_normativa": "",
      "resumen_corto": "",
      "fuente_url": "",
      "ultima_actualizacion": ""
    },
    {
      "codigo_ine": "02042",
      "nombre": "Letur",
      "provincia": "Albacete",
      "comunidad_autonoma": "Castilla-La Mancha",
      "latitud": 38.36555,
      "longitud": -2.101964,
      "estado_norma": "SIN_DATOS",
      "texto_normativa": "",
      "resumen_corto": "",
      "fuente_url": "",
      "ultima_actualizacion": ""
    },
    {
      "codigo_ine": "02043",
      "nombre": "Lezuza",
      "provincia": "Albacete",
      "comunidad_autonoma": "Castilla-La Mancha",
      "latitud": 38.94902,
      "longitud": -2.353775,
      "estado_norma": "SIN_DATOS",
      "texto_normativa": "",
      "resumen_corto": "",
      "fuente_url": "",
      "ultima_actualizacion": ""
    },
    {
      "codigo_ine": "02044",
      "nombre": "Liétor",
      "provincia": "Albacete",
      "comunidad_autonoma": "Castilla-La Mancha",
      "latitud": 38.5429,
      "longitud": -1.952878,
      "estado_norma": "SIN_DATOS",
      "texto_normativa": "",
      "resumen_corto": "",
      "fuente_url": "",
      "ultima_actualizacion": ""
    },
    {
      "codigo_ine": "02045",
      "nombre": "Madrigueras",
      "provincia": "Albacete",
      "comunidad_autonoma": "Castilla-La Mancha",
      "latitud": 39.23705,
      "longitud": -1.800167,
      "estado_norma": "SIN_DATOS",
      "texto_normativa": "",
      "resumen_corto": "",
      "fuente_url": "",
      "ultima_actualizacion": ""
    },
    {
      "codigo_ine": "02046",
      "nombre": "Mahora",
      "provincia": "Albacete",
      "comunidad_autonoma": "Castilla-La Mancha",
      "latitud": 39.21283,
      "longitud": -1.725332,
      "estado_norma": "SIN_DATOS",
      "texto_normativa": "",
      "resumen_corto": "",
      "fuente_url": "",
      "ultima_actualizacion": ""
    },
    {
      "codigo_ine": "02047",
      "nombre": "Masegoso",
      "provincia": "Albacete",
      "comunidad_autonoma": "Castilla-La Mancha",
      "latitud": 38.71841,
      "longitud": -2.315899,
      "estado_norma": "SIN_DATOS",
      "texto_normativa": "",
      "resumen_corto": "",
      "fuente_url": "",
      "ultima_actualizacion": ""
    },
    {
      "codigo_ine": "02048",
      "nombre": "Minaya",
      "provincia": "Albacete",
      "comunidad_autonoma": "Castilla-La Mancha",
      "latitud": 39.27149,
      "longitud": -2.319947,
      "estado_norma": "SIN_DATOS",
      "texto_normativa": "",
      "resumen_corto": "",
      "fuente_url": "",
      "ultima_actualizacion": ""
    },
    {
      "codigo_ine": "02049",
      "nombre": "Molinicos",
      "provincia": "Albacete",
      "comunidad_autonoma": "Castilla-La Mancha",
      "latitud": 38.46796,
      "longitud": -2.237843,
      "estado_norma": "SIN_DATOS",
      "texto_normativa": "",
      "resumen_corto": "",
      "fuente_url": "",
      "ultima_actualizacion": ""
    },
    {
      "codigo_ine": "02050",
      "nombre": "Montalvos",
      "provincia": "Albacete",
      "comunidad_autonoma": "Castilla-La Mancha",
      "latitud": 39.16689,
      "longitud": -2.027694,
      "estado_norma": "SIN_DATOS",
      "texto_normativa": "",
      "resumen_corto": "",
      "fuente_url": "",
      "ultima_actualizacion": ""
    },
    {
      "codigo_ine": "02051",
      "nombre": "Montealegre del Castillo",
      "provincia": "Albacete",
      "comunidad_autonoma": "Castilla-La Mancha",
      "latitud": 38.78697,
      "longitud": -1.325303,
      "estado_norma": "SIN_DATOS",
      "texto_normativa": "",
      "resumen_corto": "",
      "fuente_url": "",
      "ultima_actualizacion": ""
    },
    {
      "codigo_ine": "02052",
      "nombre": "Motilleja",
      "provincia": "Albacete",
      "comunidad_autonoma": "Castilla-La Mancha",
      "latitud": 39.1806,
      "longitud": -1.791874,
      "estado_norma": "SIN_DATOS",
      "texto_normativa": "",
      "resumen_corto": "",
      "fuente_url": "",
      "ultima_actualizacion": ""
    },
    {
      "codigo_ine": "02053",
      "nombre": "Munera",
      "provincia": "Albacete",
      "comunidad_autonoma": "Castilla-La Mancha",
      "latitud": 39.03984,
      "longitud": -2.482528,
      "estado_norma": "SIN_DATOS",
      "texto_normativa": "",
      "resumen_corto": "",
      "fuente_url": "",
      "ultima_actualizacion": ""
    },
    {
      "codigo_ine": "02054",
      "nombre": "Navas de Jorquera",
      "provincia": "Albacete",
      "comunidad_autonoma": "Castilla-La Mancha",
      "latitud": 39.28074,
      "longitud": -1.71904,
      "estado_norma": "SIN_DATOS",
      "texto_normativa": "",
      "resumen_corto": "",
      "fuente_url": "",
      "ultima_actualizacion": ""
    },
    {
      "codigo_ine": "02055",
      "nombre": "Nerpio",
      "provincia": "Albacete",
      "comunidad_autonoma": "Castilla-La Mancha",
      "latitud": 38.14801,
      "longitud": -2.302496,
      "estado_norma": "SIN_DATOS",
      "texto_normativa": "",
      "resumen_corto": "",
      "fuente_url": "",
      "ultima_actualizacion": ""
    },
    {
      "codigo_ine": "02056",
      "nombre": "Ontur",
      "provincia": "Albacete",
      "comunidad_autonoma": "Castilla-La Mancha",
      "latitud": 38.6147,
      "longitud": -1.498491,
      "estado_norma": "SIN_DATOS",
      "texto_normativa": "",
      "resumen_corto": "",
      "fuente_url": "",
      "ultima_actualizacion": ""
    },
    {
      "codigo_ine": "02057",
      "nombre": "Ossa de Montiel",
      "provincia": "Albacete",
      "comunidad_autonoma": "Castilla-La Mancha",
      "latitud": 38.96335,
      "longitud": -2.745406,
      "estado_norma": "SIN_DATOS",
      "texto_normativa": "",
      "resumen_corto": "",
      "fuente_url": "",
      "ultima_actualizacion": ""
    },
    {
      "codigo_ine": "02058",
      "nombre": "Paterna del Madera",
      "provincia": "Albacete",
      "comunidad_autonoma": "Castilla-La Mancha",
      "latitud": 38.59725,
      "longitud": -2.346145,
      "estado_norma": "SIN_DATOS",
      "texto_normativa": "",
      "resumen_corto": "",
      "fuente_url": "",
      "ultima_actualizacion": ""
    },
    {
      "codigo_ine": "02060",
      "nombre": "Peñas de San Pedro",
      "provincia": "Albacete",
      "comunidad_autonoma": "Castilla-La Mancha",
      "latitud": 38.72722,
      "longitud": -2.004189,
      "estado_norma": "SIN_DATOS",
      "texto_normativa": "",
      "resumen_corto": "",
      "fuente_url": "",
      "ultima_actualizacion": ""
    },
    {
      "codigo_ine": "02059",
      "nombre": "Peñascosa",
      "provincia": "Albacete",
      "comunidad_autonoma": "Castilla-La Mancha",
      "latitud": 38.67118,
      "longitud": -2.410708,
      "estado_norma": "SIN_DATOS",
      "texto_normativa": "",
      "resumen_corto": "",
      "fuente_url": "",
      "ultima_actualizacion": ""
    },
    {
      "codigo_ine": "02061",
      "nombre": "Pétrola",
      "provincia": "Albacete",
      "comunidad_autonoma": "Castilla-La Mancha",
      "latitud": 38.82572,
      "longitud": -1.557605,
      "estado_norma": "SIN_DATOS",
      "texto_normativa": "",
      "resumen_corto": "",
      "fuente_url": "",
      "ultima_actualizacion": ""
    },
    {
      "codigo_ine": "02062",
      "nombre": "Povedilla",
      "provincia": "Albacete",
      "comunidad_autonoma": "Castilla-La Mancha",
      "latitud": 38.70169,
      "longitud": -2.603873,
      "estado_norma": "SIN_DATOS",
      "texto_normativa": "",
      "resumen_corto": "",
      "fuente_url": "",
      "ultima_actualizacion": ""
    },
    {
      "codigo_ine": "02901",
      "nombre": "Pozo Cañada",
      "provincia": "Albacete",
      "comunidad_autonoma": "Castilla-La Mancha",
      "latitud": 38.80128,
      "longitud": -1.736837,
      "estado_norma": "SIN_DATOS",
      "texto_normativa": "",
      "resumen_corto": "",
      "fuente_url": "",
      "ultima_actualizacion": ""
    },
    {
      "codigo_ine": "02063",
      "nombre": "Pozohondo",
      "provincia": "Albacete",
      "comunidad_autonoma": "Castilla-La Mancha",
      "latitud": 38.72114,
      "longitud": -1.911805,
      "estado_norma": "SIN_DATOS",
      "texto_normativa": "",
      "resumen_corto": "",
      "fuente_url": "",
      "ultima_actualizacion": ""
    },
    {
      "codigo_ine": "02064",
      "nombre": "Pozo-Lorente",
      "provincia": "Albacete",
      "comunidad_autonoma": "Castilla-La Mancha",
      "latitud": 39.07682,
      "longitud": -1.506532,
      "estado_norma": "SIN_DATOS",
      "texto_normativa": "",
      "resumen_corto": "",
      "fuente_url": "",
      "ultima_actualizacion": ""
    },
    {
      "codigo_ine": "02065",
      "nombre": "Pozuelo",
      "provincia": "Albacete",
      "comunidad_autonoma": "Castilla-La Mancha",
      "latitud": 38.80923,
      "longitud": -2.100707,
      "estado_norma": "SIN_DATOS",
      "texto_normativa": "",
      "resumen_corto": "",
      "fuente_url": "",
      "ultima_actualizacion": ""
    },
    {
      "codigo_ine": "02066",
      "nombre": "La Recueja",
      "provincia": "Albacete",
      "comunidad_autonoma": "Castilla-La Mancha",
      "latitud": 39.3275,
      "longitud": -2.0439,
      "estado_norma": "SIN_DATOS",
      "texto_normativa": "",
      "resumen_corto": "",
      "fuente_url": "",
      "ultima_actualizacion": ""
    },
    {
      "codigo_ine": "02067",
      "nombre": "Riópar",
      "provincia": "Albacete",
      "comunidad_autonoma": "Castilla-La Mancha",
      "latitud": 38.49912,
      "longitud": -2.41725,
      "estado_norma": "SIN_DATOS",
      "texto_normativa": "",
      "resumen_corto": "",
      "fuente_url": "",
      "ultima_actualizacion": ""
    },
    {
      "codigo_ine": "02068",
      "nombre": "Robledo",
      "provincia": "Albacete",
      "comunidad_autonoma": "Castilla-La Mancha",
      "latitud": 38.75912,
      "longitud": -2.448879,
      "estado_norma": "SIN_DATOS",
      "texto_normativa": "",
      "resumen_corto": "",
      "fuente_url": "",
      "ultima_actualizacion": ""
    },
    {
      "codigo_ine": "02069",
      "nombre": "La Roda",
      "provincia": "Albacete",
      "comunidad_autonoma": "Castilla-La Mancha",
      "latitud": 39.3275,
      "longitud": -1.4814,
      "estado_norma": "SIN_DATOS",
      "texto_normativa": "",
      "resumen_corto": "",
      "fuente_url": "",
      "ultima_actualizacion": ""
    },
    {
      "codigo_ine": "02070",
      "nombre": "Salobre",
      "provincia": "Albacete",
      "comunidad_autonoma": "Castilla-La Mancha",
      "latitud": 38.59158,
      "longitud": -2.551266,
      "estado_norma": "SIN_DATOS",
      "texto_normativa": "",
      "resumen_corto": "",
      "fuente_url": "",
      "ultima_actualizacion": ""
    },
    {
      "codigo_ine": "02071",
      "nombre": "San Pedro",
      "provincia": "Albacete",
      "comunidad_autonoma": "Castilla-La Mancha",
      "latitud": 38.82642,
      "longitud": -2.186141,
      "estado_norma": "SIN_DATOS",
      "texto_normativa": "",
      "resumen_corto": "",
      "fuente_url": "",
      "ultima_actualizacion": ""
    },
    {
      "codigo_ine": "02072",
      "nombre": "Socovos",
      "provincia": "Albacete",
      "comunidad_autonoma": "Castilla-La Mancha",
      "latitud": 38.33348,
      "longitud": -1.983432,
      "estado_norma": "SIN_DATOS",
      "texto_normativa": "",
      "resumen_corto": "",
      "fuente_url": "",
      "ultima_actualizacion": ""
    },
    {
      "codigo_ine": "02073",
      "nombre": "Tarazona de la Mancha",
      "provincia": "Albacete",
      "comunidad_autonoma": "Castilla-La Mancha",
      "latitud": 39.26531,
      "longitud": -1.912836,
      "estado_norma": "SIN_DATOS",
      "texto_normativa": "",
      "resumen_corto": "",
      "fuente_url": "",
      "ultima_actualizacion": ""
    },
    {
      "codigo_ine": "02074",
      "nombre": "Tobarra",
      "provincia": "Albacete",
      "comunidad_autonoma": "Castilla-La Mancha",
      "latitud": 38.58844,
      "longitud": -1.693783,
      "estado_norma": "SIN_DATOS",
      "texto_normativa": "",
      "resumen_corto": "",
      "fuente_url": "",
      "ultima_actualizacion": ""
    },
    {
      "codigo_ine": "02075",
      "nombre": "Valdeganga",
      "provincia": "Albacete",
      "comunidad_autonoma": "Castilla-La Mancha",
      "latitud": 39.13523,
      "longitud": -1.677004,
      "estado_norma": "SIN_DATOS",
      "texto_normativa": "",
      "resumen_corto": "",
      "fuente_url": "",
      "ultima_actualizacion": ""
    },
    {
      "codigo_ine": "02076",
      "nombre": "Vianos",
      "provincia": "Albacete",
      "comunidad_autonoma": "Castilla-La Mancha",
      "latitud": 38.63218,
      "longitud": -2.501559,
      "estado_norma": "SIN_DATOS",
      "texto_normativa": "",
      "resumen_corto": "",
      "fuente_url": "",
      "ultima_actualizacion": ""
    },
    {
      "codigo_ine": "02077",
      "nombre": "Villa de Ves",
      "provincia": "Albacete",
      "comunidad_autonoma": "Castilla-La Mancha",
      "latitud": 39.22327,
      "longitud": -1.26016,
      "estado_norma": "SIN_DATOS",
      "texto_normativa": "",
      "resumen_corto": "",
      "fuente_url": "",
      "ultima_actualizacion": ""
    },
    {
      "codigo_ine": "02078",
      "nombre": "Villalgordo del Júcar",
      "provincia": "Albacete",
      "comunidad_autonoma": "Castilla-La Mancha",
      "latitud": 39.29626,
      "longitud": -2.06341,
      "estado_norma": "SIN_DATOS",
      "texto_normativa": "",
      "resumen_corto": "",
      "fuente_url": "",
      "ultima_actualizacion": ""
    },
    {
      "codigo_ine": "02079",
      "nombre": "Villamalea",
      "provincia": "Albacete",
      "comunidad_autonoma": "Castilla-La Mancha",
      "latitud": 39.36189,
      "longitud": -1.599296,
      "estado_norma": "SIN_DATOS",
      "texto_normativa": "",
      "resumen_corto": "",
      "fuente_url": "",
      "ultima_actualizacion": ""
    },
    {
      "codigo_ine": "02080",
      "nombre": "Villapalacios",
      "provincia": "Albacete",
      "comunidad_autonoma": "Castilla-La Mancha",
      "latitud": 38.5746,
      "longitud": -2.635532,
      "estado_norma": "SIN_DATOS",
      "texto_normativa": "",
      "resumen_corto": "",
      "fuente_url": "",
      "ultima_actualizacion": ""
    },
    {
      "codigo_ine": "02081",
      "nombre": "Villarrobledo",
      "provincia": "Albacete",
      "comunidad_autonoma": "Castilla-La Mancha",
      "latitud": 39.26726,
      "longitud": -2.607643,
      "estado_norma": "SIN_DATOS",
      "texto_normativa": "",
      "resumen_corto": "",
      "fuente_url": "",
      "ultima_actualizacion": ""
    },
    {
      "codigo_ine": "02082",
      "nombre": "Villatoya",
      "provincia": "Albacete",
      "comunidad_autonoma": "Castilla-La Mancha",
      "latitud": 39.33326,
      "longitud": -1.340224,
      "estado_norma": "SIN_DATOS",
      "texto_normativa": "",
      "resumen_corto": "",
      "fuente_url": "",
      "ultima_actualizacion": ""
    },
    {
      "codigo_ine": "02083",
      "nombre": "Villavaliente",
      "provincia": "Albacete",
      "comunidad_autonoma": "Castilla-La Mancha",
      "latitud": 39.12596,
      "longitud": -1.458606,
      "estado_norma": "SIN_DATOS",
      "texto_normativa": "",
      "resumen_corto": "",
      "fuente_url": "",
      "ultima_actualizacion": ""
    },
    {
      "codigo_ine": "02084",
      "nombre": "Villaverde de Guadalimar",
      "provincia": "Albacete",
      "comunidad_autonoma": "Castilla-La Mancha",
      "latitud": 38.4555,
      "longitud": -2.517869,
      "estado_norma": "SIN_DATOS",
      "texto_normativa": "",
      "resumen_corto": "",
      "fuente_url": "",
      "ultima_actualizacion": ""
    },
    {
      "codigo_ine": "02085",
      "nombre": "Viveros",
      "provincia": "Albacete",
      "comunidad_autonoma": "Castilla-La Mancha",
      "latitud": 38.7733,
      "longitud": -2.576014,
      "estado_norma": "SIN_DATOS",
      "texto_normativa": "",
      "resumen_corto": "",
      "fuente_url": "",
      "ultima_actualizacion": ""
    },
    {
      "codigo_ine": "02086",
      "nombre": "Yeste",
      "provincia": "Albacete",
      "comunidad_autonoma": "Castilla-La Mancha",
      "latitud": 38.36583,
      "longitud": -2.318711,
      "estado_norma": "SIN_DATOS",
      "texto_normativa": "",
      "resumen_corto": "",
      "fuente_url": "",
      "ultima_actualizacion": ""
    },
    {
      "codigo_ine": "03002",
      "nombre": "Agost",
      "provincia": "Alicante",
      "comunidad_autonoma": "Comunidad Valenciana",
      "latitud": 37.7452,
      "longitud": -1.2315,
      "estado_norma": "SIN_DATOS",
      "texto_normativa": "",
      "resumen_corto": "",
      "fuente_url": "",
      "ultima_actualizacion": ""
    },
    {
      "codigo_ine": "03003",
      "nombre": "Agres",
      "provincia": "Alicante",
      "comunidad_autonoma": "Comunidad Valenciana",
      "latitud": 37.7452,
      "longitud": -1.0815,
      "estado_norma": "SIN_DATOS",
      "texto_normativa": "",
      "resumen_corto": "",
      "fuente_url": "",
      "ultima_actualizacion": ""
    },
    {
      "codigo_ine": "03004",
      "nombre": "Aigües",
      "provincia": "Alicante",
      "comunidad_autonoma": "Comunidad Valenciana",
      "latitud": 37.7452,
      "longitud": -0.9315,
      "estado_norma": "SIN_DATOS",
      "texto_normativa": "",
      "resumen_corto": "",
      "fuente_url": "",
      "ultima_actualizacion": ""
    },
    {
      "codigo_ine": "03014",
      "nombre": "Alacant/Alicante",
      "provincia": "Alicante",
      "comunidad_autonoma": "Comunidad Valenciana",
      "latitud": 37.7452,
      "longitud": -0.7815,
      "estado_norma": "SIN_DATOS",
      "texto_normativa": "",
      "resumen_corto": "",
      "fuente_url": "",
      "ultima_actualizacion": ""
    },
    {
      "codigo_ine": "03005",
      "nombre": "Albatera",
      "provincia": "Alicante",
      "comunidad_autonoma": "Comunidad Valenciana",
      "latitud": 37.7452,
      "longitud": -0.6315,
      "estado_norma": "SIN_DATOS",
      "texto_normativa": "",
      "resumen_corto": "",
      "fuente_url": "",
      "ultima_actualizacion": ""
    },
    {
      "codigo_ine": "03006",
      "nombre": "Alcalalí",
      "provincia": "Alicante",
      "comunidad_autonoma": "Comunidad Valenciana",
      "latitud": 37.7452,
      "longitud": -0.4815,
      "estado_norma": "SIN_DATOS",
      "texto_normativa": "",
      "resumen_corto": "",
      "fuente_url": "",
      "ultima_actualizacion": ""
    },
    {
      "codigo_ine": "03009",
      "nombre": "Alcoi/Alcoy",
      "provincia": "Alicante",
      "comunidad_autonoma": "Comunidad Valenciana",
      "latitud": 37.7452,
      "longitud": -0.3315,
      "estado_norma": "SIN_DATOS",
      "texto_normativa": "",
      "resumen_corto": "",
      "fuente_url": "",
      "ultima_actualizacion": ""
    },
    {
      "codigo_ine": "03008",
      "nombre": "Alcoleja",
      "provincia": "Alicante",
      "comunidad_autonoma": "Comunidad Valenciana",
      "latitud": 37.7452,
      "longitud": -0.1815,
      "estado_norma": "SIN_DATOS",
      "texto_normativa": "",
      "resumen_corto": "",
      "fuente_url": "",
      "ultima_actualizacion": ""
    },
    {
      "codigo_ine": "03007",
      "nombre": "Alcosser",
      "provincia": "Alicante",
      "comunidad_autonoma": "Comunidad Valenciana",
      "latitud": 37.7452,
      "longitud": -0.0315,
      "estado_norma": "SIN_DATOS",
      "texto_normativa": "",
      "resumen_corto": "",
      "fuente_url": "",
      "ultima_actualizacion": ""
    },
    {
      "codigo_ine": "03010",
      "nombre": "Alfafara",
      "provincia": "Alicante",
      "comunidad_autonoma": "Comunidad Valenciana",
      "latitud": 37.7452,
      "longitud": 0.1185,
      "estado_norma": "SIN_DATOS",
      "texto_normativa": "",
      "resumen_corto": "",
      "fuente_url": "",
      "ultima_actualizacion": ""
    },
    {
      "codigo_ine": "03011",
      "nombre": "L'Alfàs del Pi",
      "provincia": "Alicante",
      "comunidad_autonoma": "Comunidad Valenciana",
      "latitud": 37.7452,
      "longitud": 0.2685,
      "estado_norma": "SIN_DATOS",
      "texto_normativa": "",
      "resumen_corto": "",
      "fuente_url": "",
      "ultima_actualizacion": ""
    },
    {
      "codigo_ine": "03012",
      "nombre": "Algorfa",
      "provincia": "Alicante",
      "comunidad_autonoma": "Comunidad Valenciana",
      "latitud": 37.8452,
      "longitud": -1.2315,
      "estado_norma": "SIN_DATOS",
      "texto_normativa": "",
      "resumen_corto": "",
      "fuente_url": "",
      "ultima_actualizacion": ""
    },
    {
      "codigo_ine": "03013",
      "nombre": "Algueña",
      "provincia": "Alicante",
      "comunidad_autonoma": "Comunidad Valenciana",
      "latitud": 37.8452,
      "longitud": -1.0815,
      "estado_norma": "SIN_DATOS",
      "texto_normativa": "",
      "resumen_corto": "",
      "fuente_url": "",
      "ultima_actualizacion": ""
    },
    {
      "codigo_ine": "03015",
      "nombre": "Almoradí",
      "provincia": "Alicante",
      "comunidad_autonoma": "Comunidad Valenciana",
      "latitud": 37.8452,
      "longitud": -0.9315,
      "estado_norma": "SIN_DATOS",
      "texto_normativa": "",
      "resumen_corto": "",
      "fuente_url": "",
      "ultima_actualizacion": ""
    },
    {
      "codigo_ine": "03016",
      "nombre": "Almudaina",
      "provincia": "Alicante",
      "comunidad_autonoma": "Comunidad Valenciana",
      "latitud": 37.8452,
      "longitud": -0.7815,
      "estado_norma": "SIN_DATOS",
      "texto_normativa": "",
      "resumen_corto": "",
      "fuente_url": "",
      "ultima_actualizacion": ""
    },
    {
      "codigo_ine": "03017",
      "nombre": "L'Alqueria d'Asnar",
      "provincia": "Alicante",
      "comunidad_autonoma": "Comunidad Valenciana",
      "latitud": 37.8452,
      "longitud": -0.6315,
      "estado_norma": "SIN_DATOS",
      "texto_normativa": "",
      "resumen_corto": "",
      "fuente_url": "",
      "ultima_actualizacion": ""
    },
    {
      "codigo_ine": "03018",
      "nombre": "Altea",
      "provincia": "Alicante",
      "comunidad_autonoma": "Comunidad Valenciana",
      "latitud": 37.8452,
      "longitud": -0.4815,
      "estado_norma": "SIN_DATOS",
      "texto_normativa": "",
      "resumen_corto": "",
      "fuente_url": "",
      "ultima_actualizacion": ""
    },
    {
      "codigo_ine": "03019",
      "nombre": "Aspe",
      "provincia": "Alicante",
      "comunidad_autonoma": "Comunidad Valenciana",
      "latitud": 37.8452,
      "longitud": -0.3315,
      "estado_norma": "SIN_DATOS",
      "texto_normativa": "",
      "resumen_corto": "",
      "fuente_url": "",
      "ultima_actualizacion": ""
    },
    {
      "codigo_ine": "03001",
      "nombre": "L'Atzúbia",
      "provincia": "Alicante",
      "comunidad_autonoma": "Comunidad Valenciana",
      "latitud": 37.8452,
      "longitud": -0.1815,
      "estado_norma": "SIN_DATOS",
      "texto_normativa": "",
      "resumen_corto": "",
      "fuente_url": "",
      "ultima_actualizacion": ""
    },
    {
      "codigo_ine": "03020",
      "nombre": "Balones",
      "provincia": "Alicante",
      "comunidad_autonoma": "Comunidad Valenciana",
      "latitud": 37.8452,
      "longitud": -0.0315,
      "estado_norma": "SIN_DATOS",
      "texto_normativa": "",
      "resumen_corto": "",
      "fuente_url": "",
      "ultima_actualizacion": ""
    },
    {
      "codigo_ine": "03021",
      "nombre": "Banyeres de Mariola",
      "provincia": "Alicante",
      "comunidad_autonoma": "Comunidad Valenciana",
      "latitud": 37.8452,
      "longitud": 0.1185,
      "estado_norma": "SIN_DATOS",
      "texto_normativa": "",
      "resumen_corto": "",
      "fuente_url": "",
      "ultima_actualizacion": ""
    },
    {
      "codigo_ine": "03022",
      "nombre": "Benasau",
      "provincia": "Alicante",
      "comunidad_autonoma": "Comunidad Valenciana",
      "latitud": 37.8452,
      "longitud": 0.2685,
      "estado_norma": "SIN_DATOS",
      "texto_normativa": "",
      "resumen_corto": "",
      "fuente_url": "",
      "ultima_actualizacion": ""
    },
    {
      "codigo_ine": "03023",
      "nombre": "Beneixama",
      "provincia": "Alicante",
      "comunidad_autonoma": "Comunidad Valenciana",
      "latitud": 37.9452,
      "longitud": -1.2315,
      "estado_norma": "SIN_DATOS",
      "texto_normativa": "",
      "resumen_corto": "",
      "fuente_url": "",
      "ultima_actualizacion": ""
    },
    {
      "codigo_ine": "03024",
      "nombre": "Benejúzar",
      "provincia": "Alicante",
      "comunidad_autonoma": "Comunidad Valenciana",
      "latitud": 37.9452,
      "longitud": -1.0815,
      "estado_norma": "SIN_DATOS",
      "texto_normativa": "",
      "resumen_corto": "",
      "fuente_url": "",
      "ultima_actualizacion": ""
    },
    {
      "codigo_ine": "03025",
      "nombre": "Benferri",
      "provincia": "Alicante",
      "comunidad_autonoma": "Comunidad Valenciana",
      "latitud": 37.9452,
      "longitud": -0.9315,
      "estado_norma": "SIN_DATOS",
      "texto_normativa": "",
      "resumen_corto": "",
      "fuente_url": "",
      "ultima_actualizacion": ""
    },
    {
      "codigo_ine": "03026",
      "nombre": "Beniarbeig",
      "provincia": "Alicante",
      "comunidad_autonoma": "Comunidad Valenciana",
      "latitud": 37.9452,
      "longitud": -0.7815,
      "estado_norma": "SIN_DATOS",
      "texto_normativa": "",
      "resumen_corto": "",
      "fuente_url": "",
      "ultima_actualizacion": ""
    },
    {
      "codigo_ine": "03027",
      "nombre": "Beniardà",
      "provincia": "Alicante",
      "comunidad_autonoma": "Comunidad Valenciana",
      "latitud": 37.9452,
      "longitud": -0.6315,
      "estado_norma": "SIN_DATOS",
      "texto_normativa": "",
      "resumen_corto": "",
      "fuente_url": "",
      "ultima_actualizacion": ""
    },
    {
      "codigo_ine": "03028",
      "nombre": "Beniarrés",
      "provincia": "Alicante",
      "comunidad_autonoma": "Comunidad Valenciana",
      "latitud": 37.9452,
      "longitud": -0.4815,
      "estado_norma": "SIN_DATOS",
      "texto_normativa": "",
      "resumen_corto": "",
      "fuente_url": "",
      "ultima_actualizacion": ""
    },
    {
      "codigo_ine": "03030",
      "nombre": "Benidoleig",
      "provincia": "Alicante",
      "comunidad_autonoma": "Comunidad Valenciana",
      "latitud": 37.9452,
      "longitud": -0.3315,
      "estado_norma": "SIN_DATOS",
      "texto_normativa": "",
      "resumen_corto": "",
      "fuente_url": "",
      "ultima_actualizacion": ""
    },
    {
      "codigo_ine": "03031",
      "nombre": "Benidorm",
      "provincia": "Alicante",
      "comunidad_autonoma": "Comunidad Valenciana",
      "latitud": 37.9452,
      "longitud": -0.1815,
      "estado_norma": "SIN_DATOS",
      "texto_normativa": "",
      "resumen_corto": "",
      "fuente_url": "",
      "ultima_actualizacion": ""
    },
    {
      "codigo_ine": "03032",
      "nombre": "Benifallim",
      "provincia": "Alicante",
      "comunidad_autonoma": "Comunidad Valenciana",
      "latitud": 37.9452,
      "longitud": -0.0315,
      "estado_norma": "SIN_DATOS",
      "texto_normativa": "",
      "resumen_corto": "",
      "fuente_url": "",
      "ultima_actualizacion": ""
    },
    {
      "codigo_ine": "03033",
      "nombre": "Benifato",
      "provincia": "Alicante",
      "comunidad_autonoma": "Comunidad Valenciana",
      "latitud": 37.9452,
      "longitud": 0.1185,
      "estado_norma": "SIN_DATOS",
      "texto_normativa": "",
      "resumen_corto": "",
      "fuente_url": "",
      "ultima_actualizacion": ""
    },
    {
      "codigo_ine": "03029",
      "nombre": "Benigembla",
      "provincia": "Alicante",
      "comunidad_autonoma": "Comunidad Valenciana",
      "latitud": 37.9452,
      "longitud": 0.2685,
      "estado_norma": "SIN_DATOS",
      "texto_normativa": "",
      "resumen_corto": "",
      "fuente_url": "",
      "ultima_actualizacion": ""
    },
    {
      "codigo_ine": "03034",
      "nombre": "Benijófar",
      "provincia": "Alicante",
      "comunidad_autonoma": "Comunidad Valenciana",
      "latitud": 38.0452,
      "longitud": -1.2315,
      "estado_norma": "SIN_DATOS",
      "texto_normativa": "",
      "resumen_corto": "",
      "fuente_url": "",
      "ultima_actualizacion": ""
    },
    {
      "codigo_ine": "03035",
      "nombre": "Benilloba",
      "provincia": "Alicante",
      "comunidad_autonoma": "Comunidad Valenciana",
      "latitud": 38.0452,
      "longitud": -1.0815,
      "estado_norma": "SIN_DATOS",
      "texto_normativa": "",
      "resumen_corto": "",
      "fuente_url": "",
      "ultima_actualizacion": ""
    },
    {
      "codigo_ine": "03036",
      "nombre": "Benillup",
      "provincia": "Alicante",
      "comunidad_autonoma": "Comunidad Valenciana",
      "latitud": 38.0452,
      "longitud": -0.9315,
      "estado_norma": "SIN_DATOS",
      "texto_normativa": "",
      "resumen_corto": "",
      "fuente_url": "",
      "ultima_actualizacion": ""
    },
    {
      "codigo_ine": "03037",
      "nombre": "Benimantell",
      "provincia": "Alicante",
      "comunidad_autonoma": "Comunidad Valenciana",
      "latitud": 38.0452,
      "longitud": -0.7815,
      "estado_norma": "SIN_DATOS",
      "texto_normativa": "",
      "resumen_corto": "",
      "fuente_url": "",
      "ultima_actualizacion": ""
    },
    {
      "codigo_ine": "03038",
      "nombre": "Benimarfull",
      "provincia": "Alicante",
      "comunidad_autonoma": "Comunidad Valenciana",
      "latitud": 38.0452,
      "longitud": -0.6315,
      "estado_norma": "SIN_DATOS",
      "texto_normativa": "",
      "resumen_corto": "",
      "fuente_url": "",
      "ultima_actualizacion": ""
    },
    {
      "codigo_ine": "03039",
      "nombre": "Benimassot",
      "provincia": "Alicante",
      "comunidad_autonoma": "Comunidad Valenciana",
      "latitud": 38.0452,
      "longitud": -0.4815,
      "estado_norma": "SIN_DATOS",
      "texto_normativa": "",
      "resumen_corto": "",
      "fuente_url": "",
      "ultima_actualizacion": ""
    },
    {
      "codigo_ine": "03040",
      "nombre": "Benimeli",
      "provincia": "Alicante",
      "comunidad_autonoma": "Comunidad Valenciana",
      "latitud": 38.0452,
      "longitud": -0.3315,
      "estado_norma": "SIN_DATOS",
      "texto_normativa": "",
      "resumen_corto": "",
      "fuente_url": "",
      "ultima_actualizacion": ""
    },
    {
      "codigo_ine": "03041",
      "nombre": "Benissa",
      "provincia": "Alicante",
      "comunidad_autonoma": "Comunidad Valenciana",
      "latitud": 38.0452,
      "longitud": -0.1815,
      "estado_norma": "SIN_DATOS",
      "texto_normativa": "",
      "resumen_corto": "",
      "fuente_url": "",
      "ultima_actualizacion": ""
    },
    {
      "codigo_ine": "03043",
      "nombre": "Biar",
      "provincia": "Alicante",
      "comunidad_autonoma": "Comunidad Valenciana",
      "latitud": 38.0452,
      "longitud": -0.0315,
      "estado_norma": "SIN_DATOS",
      "texto_normativa": "",
      "resumen_corto": "",
      "fuente_url": "",
      "ultima_actualizacion": ""
    },
    {
      "codigo_ine": "03044",
      "nombre": "Bigastro",
      "provincia": "Alicante",
      "comunidad_autonoma": "Comunidad Valenciana",
      "latitud": 38.0452,
      "longitud": 0.1185,
      "estado_norma": "SIN_DATOS",
      "texto_normativa": "",
      "resumen_corto": "",
      "fuente_url": "",
      "ultima_actualizacion": ""
    },
    {
      "codigo_ine": "03045",
      "nombre": "Bolulla",
      "provincia": "Alicante",
      "comunidad_autonoma": "Comunidad Valenciana",
      "latitud": 38.0452,
      "longitud": 0.2685,
      "estado_norma": "SIN_DATOS",
      "texto_normativa": "",
      "resumen_corto": "",
      "fuente_url": "",
      "ultima_actualizacion": ""
    },
    {
      "codigo_ine": "03046",
      "nombre": "Busot",
      "provincia": "Alicante",
      "comunidad_autonoma": "Comunidad Valenciana",
      "latitud": 38.1452,
      "longitud": -1.2315,
      "estado_norma": "SIN_DATOS",
      "texto_normativa": "",
      "resumen_corto": "",
      "fuente_url": "",
      "ultima_actualizacion": ""
    },
    {
      "codigo_ine": "03049",
      "nombre": "Callosa de Segura",
      "provincia": "Alicante",
      "comunidad_autonoma": "Comunidad Valenciana",
      "latitud": 38.1452,
      "longitud": -1.0815,
      "estado_norma": "SIN_DATOS",
      "texto_normativa": "",
      "resumen_corto": "",
      "fuente_url": "",
      "ultima_actualizacion": ""
    },
    {
      "codigo_ine": "03048",
      "nombre": "Callosa d'en Sarrià",
      "provincia": "Alicante",
      "comunidad_autonoma": "Comunidad Valenciana",
      "latitud": 38.1452,
      "longitud": -0.9315,
      "estado_norma": "SIN_DATOS",
      "texto_normativa": "",
      "resumen_corto": "",
      "fuente_url": "",
      "ultima_actualizacion": ""
    },
    {
      "codigo_ine": "03047",
      "nombre": "Calp",
      "provincia": "Alicante",
      "comunidad_autonoma": "Comunidad Valenciana",
      "latitud": 38.1452,
      "longitud": -0.7815,
      "estado_norma": "SIN_DATOS",
      "texto_normativa": "",
      "resumen_corto": "",
      "fuente_url": "",
      "ultima_actualizacion": ""
    },
    {
      "codigo_ine": "03051",
      "nombre": "Camp de Mirra, el/Campo de Mirra",
      "provincia": "Alicante",
      "comunidad_autonoma": "Comunidad Valenciana",
      "latitud": 38.1452,
      "longitud": -0.6315,
      "estado_norma": "SIN_DATOS",
      "texto_normativa": "",
      "resumen_corto": "",
      "fuente_url": "",
      "ultima_actualizacion": ""
    },
    {
      "codigo_ine": "03050",
      "nombre": "El Campello",
      "provincia": "Alicante",
      "comunidad_autonoma": "Comunidad Valenciana",
      "latitud": 38.1452,
      "longitud": -0.4815,
      "estado_norma": "SIN_DATOS",
      "texto_normativa": "",
      "resumen_corto": "",
      "fuente_url": "",
      "ultima_actualizacion": ""
    },
    {
      "codigo_ine": "03052",
      "nombre": "Cañada",
      "provincia": "Alicante",
      "comunidad_autonoma": "Comunidad Valenciana",
      "latitud": 38.1452,
      "longitud": -0.3315,
      "estado_norma": "SIN_DATOS",
      "texto_normativa": "",
      "resumen_corto": "",
      "fuente_url": "",
      "ultima_actualizacion": ""
    },
    {
      "codigo_ine": "03053",
      "nombre": "Castalla",
      "provincia": "Alicante",
      "comunidad_autonoma": "Comunidad Valenciana",
      "latitud": 38.1452,
      "longitud": -0.1815,
      "estado_norma": "SIN_DATOS",
      "texto_normativa": "",
      "resumen_corto": "",
      "fuente_url": "",
      "ultima_actualizacion": ""
    },
    {
      "codigo_ine": "03054",
      "nombre": "Castell de Castells",
      "provincia": "Alicante",
      "comunidad_autonoma": "Comunidad Valenciana",
      "latitud": 38.1452,
      "longitud": -0.0315,
      "estado_norma": "SIN_DATOS",
      "texto_normativa": "",
      "resumen_corto": "",
      "fuente_url": "",
      "ultima_actualizacion": ""
    },
    {
      "codigo_ine": "03075",
      "nombre": "El Castell de Guadalest",
      "provincia": "Alicante",
      "comunidad_autonoma": "Comunidad Valenciana",
      "latitud": 38.1452,
      "longitud": 0.1185,
      "estado_norma": "SIN_DATOS",
      "texto_normativa": "",
      "resumen_corto": "",
      "fuente_url": "",
      "ultima_actualizacion": ""
    },
    {
      "codigo_ine": "03055",
      "nombre": "Catral",
      "provincia": "Alicante",
      "comunidad_autonoma": "Comunidad Valenciana",
      "latitud": 38.1452,
      "longitud": 0.2685,
      "estado_norma": "SIN_DATOS",
      "texto_normativa": "",
      "resumen_corto": "",
      "fuente_url": "",
      "ultima_actualizacion": ""
    },
    {
      "codigo_ine": "03056",
      "nombre": "Cocentaina",
      "provincia": "Alicante",
      "comunidad_autonoma": "Comunidad Valenciana",
      "latitud": 38.2452,
      "longitud": -1.2315,
      "estado_norma": "SIN_DATOS",
      "texto_normativa": "",
      "resumen_corto": "",
      "fuente_url": "",
      "ultima_actualizacion": ""
    },
    {
      "codigo_ine": "03057",
      "nombre": "Confrides",
      "provincia": "Alicante",
      "comunidad_autonoma": "Comunidad Valenciana",
      "latitud": 38.2452,
      "longitud": -1.0815,
      "estado_norma": "SIN_DATOS",
      "texto_normativa": "",
      "resumen_corto": "",
      "fuente_url": "",
      "ultima_actualizacion": ""
    },
    {
      "codigo_ine": "03058",
      "nombre": "Cox",
      "provincia": "Alicante",
      "comunidad_autonoma": "Comunidad Valenciana",
      "latitud": 38.2452,
      "longitud": -0.9315,
      "estado_norma": "SIN_DATOS",
      "texto_normativa": "",
      "resumen_corto": "",
      "fuente_url": "",
      "ultima_actualizacion": ""
    },
    {
      "codigo_ine": "03059",
      "nombre": "Crevillent",
      "provincia": "Alicante",
      "comunidad_autonoma": "Comunidad Valenciana",
      "latitud": 38.2452,
      "longitud": -0.7815,
      "estado_norma": "SIN_DATOS",
      "texto_normativa": "",
      "resumen_corto": "",
      "fuente_url": "",
      "ultima_actualizacion": ""
    },
    {
      "codigo_ine": "03061",
      "nombre": "Daya Nueva",
      "provincia": "Alicante",
      "comunidad_autonoma": "Comunidad Valenciana",
      "latitud": 38.2452,
      "longitud": -0.6315,
      "estado_norma": "SIN_DATOS",
      "texto_normativa": "",
      "resumen_corto": "",
      "fuente_url": "",
      "ultima_actualizacion": ""
    },
    {
      "codigo_ine": "03062",
      "nombre": "Daya Vieja",
      "provincia": "Alicante",
      "comunidad_autonoma": "Comunidad Valenciana",
      "latitud": 38.2452,
      "longitud": -0.4815,
      "estado_norma": "SIN_DATOS",
      "texto_normativa": "",
      "resumen_corto": "",
      "fuente_url": "",
      "ultima_actualizacion": ""
    },
    {
      "codigo_ine": "03063",
      "nombre": "Dénia",
      "provincia": "Alicante",
      "comunidad_autonoma": "Comunidad Valenciana",
      "latitud": 38.2452,
      "longitud": -0.3315,
      "estado_norma": "SIN_DATOS",
      "texto_normativa": "",
      "resumen_corto": "",
      "fuente_url": "",
      "ultima_actualizacion": ""
    },
    {
      "codigo_ine": "03064",
      "nombre": "Dolores",
      "provincia": "Alicante",
      "comunidad_autonoma": "Comunidad Valenciana",
      "latitud": 38.2452,
      "longitud": -0.1815,
      "estado_norma": "SIN_DATOS",
      "texto_normativa": "",
      "resumen_corto": "",
      "fuente_url": "",
      "ultima_actualizacion": ""
    },
    {
      "codigo_ine": "03066",
      "nombre": "Elda",
      "provincia": "Alicante",
      "comunidad_autonoma": "Comunidad Valenciana",
      "latitud": 38.2452,
      "longitud": -0.0315,
      "estado_norma": "SIN_DATOS",
      "texto_normativa": "",
      "resumen_corto": "",
      "fuente_url": "",
      "ultima_actualizacion": ""
    },
    {
      "codigo_ine": "03065",
      "nombre": "Elx/Elche",
      "provincia": "Alicante",
      "comunidad_autonoma": "Comunidad Valenciana",
      "latitud": 38.2452,
      "longitud": 0.1185,
      "estado_norma": "SIN_DATOS",
      "texto_normativa": "",
      "resumen_corto": "",
      "fuente_url": "",
      "ultima_actualizacion": ""
    },
    {
      "codigo_ine": "03067",
      "nombre": "Fageca",
      "provincia": "Alicante",
      "comunidad_autonoma": "Comunidad Valenciana",
      "latitud": 38.2452,
      "longitud": 0.2685,
      "estado_norma": "SIN_DATOS",
      "texto_normativa": "",
      "resumen_corto": "",
      "fuente_url": "",
      "ultima_actualizacion": ""
    },
    {
      "codigo_ine": "03068",
      "nombre": "Famorca",
      "provincia": "Alicante",
      "comunidad_autonoma": "Comunidad Valenciana",
      "latitud": 38.3452,
      "longitud": -1.2315,
      "estado_norma": "SIN_DATOS",
      "texto_normativa": "",
      "resumen_corto": "",
      "fuente_url": "",
      "ultima_actualizacion": ""
    },
    {
      "codigo_ine": "03069",
      "nombre": "Finestrat",
      "provincia": "Alicante",
      "comunidad_autonoma": "Comunidad Valenciana",
      "latitud": 38.3452,
      "longitud": -1.0815,
      "estado_norma": "SIN_DATOS",
      "texto_normativa": "",
      "resumen_corto": "",
      "fuente_url": "",
      "ultima_actualizacion": ""
    },
    {
      "codigo_ine": "03077",
      "nombre": "Fondó de les Neus, el/Hondón de las Nieves",
      "provincia": "Alicante",
      "comunidad_autonoma": "Comunidad Valenciana",
      "latitud": 38.3452,
      "longitud": -0.9315,
      "estado_norma": "SIN_DATOS",
      "texto_normativa": "",
      "resumen_corto": "",
      "fuente_url": "",
      "ultima_actualizacion": ""
    },
    {
      "codigo_ine": "03070",
      "nombre": "Formentera del Segura",
      "provincia": "Alicante",
      "comunidad_autonoma": "Comunidad Valenciana",
      "latitud": 38.3452,
      "longitud": -0.7815,
      "estado_norma": "SIN_DATOS",
      "texto_normativa": "",
      "resumen_corto": "",
      "fuente_url": "",
      "ultima_actualizacion": ""
    },
    {
      "codigo_ine": "03072",
      "nombre": "Gaianes",
      "provincia": "Alicante",
      "comunidad_autonoma": "Comunidad Valenciana",
      "latitud": 38.3452,
      "longitud": -0.6315,
      "estado_norma": "SIN_DATOS",
      "texto_normativa": "",
      "resumen_corto": "",
      "fuente_url": "",
      "ultima_actualizacion": ""
    },
    {
      "codigo_ine": "03071",
      "nombre": "Gata de Gorgos",
      "provincia": "Alicante",
      "comunidad_autonoma": "Comunidad Valenciana",
      "latitud": 38.3452,
      "longitud": -0.4815,
      "estado_norma": "SIN_DATOS",
      "texto_normativa": "",
      "resumen_corto": "",
      "fuente_url": "",
      "ultima_actualizacion": ""
    },
    {
      "codigo_ine": "03073",
      "nombre": "Gorga",
      "provincia": "Alicante",
      "comunidad_autonoma": "Comunidad Valenciana",
      "latitud": 38.3452,
      "longitud": -0.3315,
      "estado_norma": "SIN_DATOS",
      "texto_normativa": "",
      "resumen_corto": "",
      "fuente_url": "",
      "ultima_actualizacion": ""
    },
    {
      "codigo_ine": "03074",
      "nombre": "Granja de Rocamora",
      "provincia": "Alicante",
      "comunidad_autonoma": "Comunidad Valenciana",
      "latitud": 38.3452,
      "longitud": -0.1815,
      "estado_norma": "SIN_DATOS",
      "texto_normativa": "",
      "resumen_corto": "",
      "fuente_url": "",
      "ultima_actualizacion": ""
    },
    {
      "codigo_ine": "03076",
      "nombre": "Guardamar del Segura",
      "provincia": "Alicante",
      "comunidad_autonoma": "Comunidad Valenciana",
      "latitud": 38.3452,
      "longitud": -0.0315,
      "estado_norma": "SIN_DATOS",
      "texto_normativa": "",
      "resumen_corto": "",
      "fuente_url": "",
      "ultima_actualizacion": ""
    },
    {
      "codigo_ine": "03078",
      "nombre": "Hondón de los Frailes",
      "provincia": "Alicante",
      "comunidad_autonoma": "Comunidad Valenciana",
      "latitud": 38.3452,
      "longitud": 0.1185,
      "estado_norma": "SIN_DATOS",
      "texto_normativa": "",
      "resumen_corto": "",
      "fuente_url": "",
      "ultima_actualizacion": ""
    },
    {
      "codigo_ine": "03079",
      "nombre": "Ibi",
      "provincia": "Alicante",
      "comunidad_autonoma": "Comunidad Valenciana",
      "latitud": 38.3452,
      "longitud": 0.2685,
      "estado_norma": "SIN_DATOS",
      "texto_normativa": "",
      "resumen_corto": "",
      "fuente_url": "",
      "ultima_actualizacion": ""
    },
    {
      "codigo_ine": "03080",
      "nombre": "Jacarilla",
      "provincia": "Alicante",
      "comunidad_autonoma": "Comunidad Valenciana",
      "latitud": 38.4452,
      "longitud": -1.2315,
      "estado_norma": "SIN_DATOS",
      "texto_normativa": "",
      "resumen_corto": "",
      "fuente_url": "",
      "ultima_actualizacion": ""
    },
    {
      "codigo_ine": "03085",
      "nombre": "Llíber",
      "provincia": "Alicante",
      "comunidad_autonoma": "Comunidad Valenciana",
      "latitud": 38.4452,
      "longitud": -1.0815,
      "estado_norma": "SIN_DATOS",
      "texto_normativa": "",
      "resumen_corto": "",
      "fuente_url": "",
      "ultima_actualizacion": ""
    },
    {
      "codigo_ine": "03086",
      "nombre": "Millena",
      "provincia": "Alicante",
      "comunidad_autonoma": "Comunidad Valenciana",
      "latitud": 38.4452,
      "longitud": -0.9315,
      "estado_norma": "SIN_DATOS",
      "texto_normativa": "",
      "resumen_corto": "",
      "fuente_url": "",
      "ultima_actualizacion": ""
    },
    {
      "codigo_ine": "03088",
      "nombre": "Monforte del Cid",
      "provincia": "Alicante",
      "comunidad_autonoma": "Comunidad Valenciana",
      "latitud": 38.4452,
      "longitud": -0.7815,
      "estado_norma": "SIN_DATOS",
      "texto_normativa": "",
      "resumen_corto": "",
      "fuente_url": "",
      "ultima_actualizacion": ""
    },